OBJECTID,Building Occupancy,Building Address,Building Area/Neighborhood,Building Latitude,Building Longitude,Original Entry Date,Orignial Placard,Revision Entry Date,Updated Placard,Description,,,,,,,,,
1,RESIDENCE,412 WALNUT,ST. MARE ISLAND,38.10120394,-122.2749611,2014-08-24,YELLOW,,,CHIMNEY DAMAGE,,,,,,,,,
2,RESIDENCE,416 WALNUT,ST. MARE ISLAND,38.10114409,-122.2749058,2014-08-24,YELLOW,,,CHIMNEY DAMAGE,,,,,,,,,
3,RESIDENCE,500 WALNUT,ST. MARE ISLAND,38.09977236,-122.2736361,2014-08-24,YELLOW,,,CHIMNEY DAMAGE,,,,,,,,,
4,RESIDENCE,1035 WALNUT,ST. MARE ISLAND,38.09506336,-122.2698572,2014-08-24,YELLOW,,,CHIMNEY DAMAGE,,,,,,,,,
5,RESIDENCE,522 WALNUT,ST. MARE ISLAND,38.09956859,-122.273438,2014-08-24,YELLOW,,,CHIMNEY DAMAGE,,,,,,,,,
6,RESIDENCE,700 WALNUT,ST. MARE ISLAND,38.10537387,-122.2786631,2014-08-24,YELLOW,,,CHIMNEY DAMAGE,,,,,,,,,
7,RESIDENCE,1061 WALNUT,ST. MARE ISLAND,38.0948274,-122.2699058,2014-08-24,YELLOW,,,CHIMNEY DAMAGE,,,,,,,,,
8,RESIDENCE,800 WALNUT,ST. MARE ISLAND,38.10391655,-122.277335,2014-08-24,YELLOW,,,CHIMNEY DAMAGE,,,,,,,,,
9,RESIDENCE,1125 WALNUT,ST. MARE ISLAND,38.09424312,-122.2700296,2014-08-24,GREEN,,,NO NOTABLE DAMAGE,,,,,,,,,
10,RESIDENCE,1155 WALNUT,ST. MARE ISLAND,38.09396924,-122.2700876,2014-08-24,YELLOW,,,CHIMNEY DAMAGE,,,,,,,,,
11,RESIDENCE,822 WALNUT,ST. MARE ISLAND,38.10338776,-122.2768567,2014-08-24,GREEN,,,NO NOTABLE DAMAGE,,,,,,,,,
12,RESIDENCE,1085 WALNUT,ST. MARE ISLAND,38.09460829,-122.2699523,2014-08-24,GREEN,,,NO NOTABLE DAMAGE,,,,,,,,,
13,RESIDENCE,1061 WALNUT,ST. MARE ISLAND,38.0948274,-122.2699058,2014-08-24,YELLOW,,,CHIMNEY DAMAGE,,,,,,,,,
14,RESIDENCE,1155 NIMITZ,ST. MARE ISLAND,38.09630422,-122.2674697,2014-08-24,YELLOW,,,CHIMNEY DAMAGE,,,,,,,,,
15,COMMERCIAL,1155 NIMITZ - BLDG 106,ST. MARE ISLAND,38.09630422,-122.2674697,2014-08-24,RED,,,BRICK DAMAGE,,,,,,,,,
16,COMMERCIAL,1156 NIMITZ - BLDG 750,ST. MARE ISLAND,38.09633608,-122.2674144,2014-08-24,YELLOW,,,WATER DAMAGE SPRINKLERS,,,,,,,,,
17,COMMERCIAL,1275 NIMITZ - BLDG 678,ST. MARE ISLAND,38.09468975,-122.2659702,2014-08-24,YELLOW,,,"ROLL UP DOORS OFF TRACK, SPRINKLERS ACTIVIATED",,,,,,,,,
18,COMMERCIAL,1158 NIMITZ - BLDG 118,ST. MARE ISLAND,38.09627108,-122.267354,2014-08-24,RED,,,MASONRY FAILURE,,,,,,,,,
19,COMMERCIAL,1175 NIMITZ,ST. MARE ISLAND,38.09606475,-122.2672471,2014-08-24,YELLOW,,,"ROLL UP DOORS OFF TRACK, SPRINKLERS ACTIVIATED",,,,,,,,,
20,RESIDENCE,1451 AZUAR,ST. MARE ISLAND,38.08841461,-122.2655725,2014-08-24,YELLOW,,,CHIMNEY DAMAGE (2),,,,,,,,,
21,RESIDENCE,1441 AZUAR,ST. MARE ISLAND,38.08846143,-122.2655988,2014-08-24,YELLOW,,,CHIMNEY DAMAGE (2),,,,,,,,,
22,RESIDENCE,1338 FARRELL,,38.09764117,-122.2387246,2014-08-24,YELLOW,,,CHIMNEY DAMAGE,,,,,,,,,
23,RESIDENCE,1137 FLORIDA,,38.10490849,-122.2475199,2014-08-24,YELLOW,,,CHIMNEY DAMAGE,,,,,,,,,
24,RESIDENCE,1502 FLORIDA,,38.10489728,-122.2422647,2014-08-24,YELLOW,,,CHIMNEY DAMAGE,,,,,,,,,
25,RESIDENCE,1508 FLORIDA,,38.10489623,-122.2422163,2014-08-24,YELLOW,,,CHIMNEY DAMAGE,,,,,,,,,
26,RESIDENCE,1514 FLORIDA,,38.10489518,-122.2421679,2014-08-24,YELLOW,,,CHIMNEY DAMAGE,,,,,,,,,
27,RESIDENCE,1520 FLORIDA,,38.10489413,-122.2421195,2014-08-24,YELLOW,,,CHIMNEY DAMAGE,,,,,,,,,
28,RESIDENCE,1527 FLORIDA,,38.10483914,-122.2420731,2014-08-24,YELLOW,,,CHIMNEY DAMAGE,,,,,,,,,
29,RESIDENCE,1600 FLORIDA,,38.10487619,-122.2412625,2014-08-24,YELLOW,,,CHIMNEY DAMAGE,,,,,,,,,
30,RESIDENCE,1614 FLORIDA,,38.10487417,-122.2411338,2014-08-24,YELLOW,,,CHIMNEY DAMAGE,,,,,,,,,
31,RESIDENCE,526 CONTRA COSTA,,38.10525107,-122.241334,2014-08-24,YELLOW,,,CHIMNEY DAMAGE,,,,,,,,,
32,RESIDENCE,521 CONTRA COSTA,,38.10518036,-122.2414042,2014-08-24,YELLOW,,,CHIMNEY DAMAGE,,,,,,,,,
33,RESIDENCE,545 GEORGIA,NO ACCESS,38.10104535,-122.2541855,2014-08-24,,,,,,,,,,,,,
34,RESIDENCE,1305 TENNESSEE ST,,38.10979292,-122.2421302,2014-08-24,,,,CHIMNEY DAMAGE,,,,,,,,,
35,RESIDENCE,31 CARROLL ST,,38.11070202,-122.2413248,2014-08-24,,,,CHIMNEY DAMAGE,,,,,,,,,
36,RESIDENCE,532 OHIO ST,,38.10706793,-122.2569486,2014-08-24,,,,CHIMNEY DAMAGE,,,,,,,,,
37,RESIDENCE,530 OHIO ST,,38.10706793,-122.257099,2014-08-24,YELLOW,,,CHIMNEY DAMAGE,,,,,,,,,
38,COMMERCIAL,730 TENNESSEE ST,,38.10995842,-122.2502387,2014-08-24,RED,,,ROOF TILES FAILING,,,,,,,,,
39,COMMERCIAL,100-700 TENNESSE ST,,38.11012858,-122.2612923,2014-08-24,TAPED OFF,,,"BROKEN GLASS, MISC DAMAGE",,,,,,,,,
40,COMMERCIAL,702 TENNESSEE ST,,38.10996775,-122.2510686,2014-08-24,GREEN,,,NO NOTABLE DAMAGE,,,,,,,,,
41,COMMERCIAL,1101 RAILROAD,,38.10083059,-122.2549457,2014-08-24,RED,,,"STRUCTURAL, BRICK FAILURE AND WATER LEAKS",,,,,,,,,
42,COMMERCIAL,875 NIMITZ,,38.10283659,-122.2731868,2014-08-24,GREEN,,,,,,,,,,,,
43,MULTI-FAMILY APT,901 GEORGIA,,38.10097425,-122.2481632,2014-08-24,YELLOW,,,,,,,,,,,,
44,PUBLIC-FIRE TRAINING CNTR,703 CURTOLA,FIRE TRAINING CENTER,38.09696151,-122.2482468,2014-08-24,,,,,,,,,,,,,
45,COMMERCIAL,435 VIRGINIA,,38.10206746,-122.255962,2014-08-24,RED,,,,,,,,,,,,
46,,426 VIRGINIA,,38.10212267,-122.2560787,2014-08-24,GREEN,,,,,,,,,,,,
47,COMMERCIAL,430 VIRGINIA,,38.10212204,-122.2560199,2014-08-24,RED,,,,,,,,,,,,
48,,1328 RYDER,CAUTION TAPE,38.09821375,-122.2394251,2014-08-24,,,,,,,,,,,,,
49,,1412 FARRELL,,38.09822241,-122.2377226,2014-08-24,YELLOW,,,CHIMNEY DAMAGE,,,,,,,,,
50,COMMERCIAL,STATION 26 BEDFORD,,38.10083059,-122.2549457,2014-08-24,GREEN,,,,,,,,,,,,
51,MIXED USE,428 GEORGIA,,38.10112272,-122.2557013,2014-08-24,RED,,,,,,,,,,,,
52,,436 GEORGIA,,38.10111619,-122.2553531,2014-08-24,RED,,,,,,,,,,,,
53,RESIDENCE,1314 MARIN,,38.10836063,-122.2563982,2014-08-24,YELLOW,,,"CHIMNEY DAMAGE, BRICKS SEPARATED",,,,,,,,,
54,RESIDENCE,4010 EL DORADO,,38.10931024,-122.2497316,2014-08-24,GREEN,,,CHIMNEY DAMAGE,,,,,,,,,
55,,355 TOULUMNE,,38.10259373,-122.238257,2014-08-24,,,,,,,,,,,,,
56,,365 TOULUMNE,,38.10263228,-122.2382579,2014-08-24,,,,,,,,,,,,,
57,,845 GEORGIA,,38.10098537,-122.249171,2014-08-24,,,,CHIMNEY DAMAGE,,,,,,,,,
58,RESIDENCE,150 DENIO,,38.11621876,-122.2587372,2014-08-24,,,,STRUCTURAL DAMAGE,,,,,,,,,
59,RESIDENCE,152 DENIO,,38.11621799,-122.2587095,2014-08-24,,,,STRUCTURAL DAMAGE,,,,,,,,,
60,RESIDENCE,154 DENIO,,38.11621721,-122.2586817,2014-08-24,,,,STRUCTURAL DAMAGE,,,,,,,,,
61,RESIDENCE,156 DENIO,,38.11621644,-122.2586539,2014-08-24,,,,STRUCTURAL DAMAGE,,,,,,,,,
62,COMMERCIAL,100 GEORGIA,HOUSING AUTHORITY,38.10119087,-122.2613306,2014-08-25,YELLOW,,,"MECHANICAL REGISTER, LIGHTS & INTERIOR",,,,,,,,,
63,COMMERCIAL,485 SANTA CLARA,POST OFFICE,38.10085679,-122.2600022,2014-08-25,RED,,,CEILING DAMAGE-STRUCTURAL,,,,,,,,,
64,COMMERCIAL,225 AMADOR,CVRD,38.10147439,-122.2435568,2014-08-25,RED,,,"RECREATIONAL BUILDING, BRICK CHIMNEY FELL THROUGH ROOF",,,,,,,,,
65,RESIDENCE,1120 GEORGIA,,38.10097537,-122.2443972,2014-08-25,YELLOW,,,CHIMNEY DAMAGE-HAZARD,,,,,,,,,
66,RESIDENCE,1130 GEORGIA,,38.10097348,-122.2442795,2014-08-25,YELLOW,,,CHIMNEY DAMAGE-HAZARD,,,,,,,,,
67,,2770 HILLTOP DR,,38.29313465,-122.307622,2014-09-23,Yellow,2014-09-23, ,"No noticable damages observed from exterior, chimney damages are inspected.Stay away until further inspection",,,,,,,,,
68,,4026 WISTERIA WAY,,38.33785574,-122.3081806,2014-09-24,Green,2014-09-24, ,Cracks in wood ridge beam appear to be ordinary shrinkage cracks,,,,,,,,,
69,,2510 VINE HILL DR,,38.32856381,-122.3335583,2014-09-24,Green,2014-09-24, ,"Cracks in GYPBD, roof beam @ porch & interior beam twisted.",,,,,,,,,
70,,2072 W LINCOLN AVE,,38.30631597,-122.3088967,2014-09-16,Green,2014-09-16, ,minor cracks in chimney - home appears safe and secure,,,,,,,,,
71,,1152 STANFORD CT,,38.31523879,-122.3464215,2014-10-08,Yellow,2014-10-08, ,No use of front porch except to enter /exit home,,,,,,,,,
72,,10 TUSCANY CT,,38.31308639,-122.3428083,2014-09-05,Yellow,2014-09-05, ,front door does not open,,,,,,,,,
73,,1006 STONEBRIDGE DR,,38.2954933,-122.3375748,2014-09-05,Green,2014-09-05, ,"chimney fell from house, no futher threat of injury",,,,,,,,,
74,,1063 STONYBROOK DR,,38.30564293,-122.3456121,2014-09-05,Red,2014-09-05,downgraded to yellow,Chimney through roof,,,,,,,,,
75,,1030 THIRD ST,,38.29779375,-122.2846584,2014-09-25,Yellow,2014-09-25,downgraded from red,[ATC for 1030 through 1040 - but prev entries only for 1030 & 1040] OK to occ while construction of adj bldg prooceeds - parking area not accessible,,,,,,,,,
76,,923 VALLEJO ST,,38.30369034,-122.2876771,2014-09-25,Green,2014-09-25, ,"Rear of unit 921 bldg of stucco about 6"" above sill, dosent appear to have rim joist. Cracking 7"" above sill, may desire more through struc eng eval",,,,,,,,,
77,,2078 W PUEBLO AVE,,38.31338444,-122.3114762,2014-09-05,Green,2014-09-05, ,no placard placed - minor stucco cracks,,,,,,,,,
78,,2454 OLD SONOMA RD,,38.28809801,-122.3041195,2014-09-23,Yellow,2014-09-23, ,Rock veneer loose in front. Stairs coming loose from landings,,,,,,,,,
79,,4401 SUMMERFIELD DR,,38.34393049,-122.3134061,2014-09-05,Yellow,2014-09-05, ,"Cracked chimney, occupants stay 25 ft. aWy from chimney",,,,,,,,,
80,,1691 SILVERADO TRL,,38.311403,-122.2767124,2014-09-05,Green,2014-09-05, ,structure good,,,,,,,,,
81,,19 MARSALA WAY,,38.3443793,-122.3287145,2014-09-05,Green,2014-09-05, ,structure good,,,,,,,,,
82,,1025 CLARK ST,,38.31057925,-122.2747538,2014-09-05,Green,2014-09-05, ,structure good,,,,,,,,,
83,,3379 SOLANO AVE,,38.32060122,-122.3107468,2014-09-05,Yellow,2014-09-05, ,"Collapse, partial collapse, or building off foundation",,,,,,,,,
84,,1766 THIRD ST,,38.29581563,-122.2926307,2014-09-24,Green,2014-09-24, ,Non-struct/corbels slightly detach from struct. N-side under bay window;elect'l conduit detached from under box. Repair needed,,,,,,,,,
85,,1519 MAIN ST C,,38.30283697,-122.2887446,2014-09-10,Yellow,2014-09-10, ,[ATC shared with red for Unit A] no occupancy except as noted on tag - need engineer eval,,,,,,,,,
86,,3696 MONTANA DR,,38.3164642,-122.3462944,2014-09-05,Red,2014-09-05, ,"steel roof  off, damage with wind uplift, tank rocking (B-Tank)",,,,,,,,,
87,,1424 SECOND ST,,38.296794,-122.2886687,2014-09-05,Red,2014-09-05,downgraded to green,"adjacent building failing UPS, Pleasures, law office)",,,,,,,,,
88,,2201 PINE ST,,38.29083149,-122.2991319,2014-09-05,Yellow,2014-09-05, ,minor cracks in north exterior wall and south interior wall near stage,,,,,,,,,
89,,1558 TRANCAS ST,,38.32299867,-122.3037759,2014-09-05,Green,2014-09-05, ,(Lucky's CVS) - beam in fron tof CVS is shored up,,,,,,,,,
90,,2106 SPENCER ST,,38.30630319,-122.2958667,2014-09-24,Green,2014-09-24, ,Interior GYP board cracking,,,,,,,,,
91,,2425 THIRD ST,,38.29630717,-122.3010976,2014-09-05,Yellow,2014-09-05, ,chimney down from the ground level to the roof.,,,,,,,,,
92,,47 WILD RYE WAY,,38.32758529,-122.2995945,2014-09-24,Green,2014-09-24, ,Stucco diagonal cracks @ garage header and garage side door. Inspected,,,,,,,,,
93,,3539 LOWREY CT,,38.30171249,-122.3456071,2014-09-05,Yellow,2014-09-05, ,Clay roof tiles fractured wood roof rafters,,,,,,,,,
94,,1740 MYRTLE AVE,,38.31360809,-122.3047135,2014-09-05,Yellow,2014-09-05, ,chimney seperated from wall interior and exterior,,,,,,,,,
95,,4 ST FRANCIS CT,,38.27674807,-122.3072136,2014-09-25,Green,2014-09-25, ,"Already been yellow tag, restricted area is @ backyard. Looks like there is on-going work. We didn't gain access",,,,,,,,,
96,,25 BLUE JAY CT,,38.30838875,-122.3504164,2014-09-05,Yellow,2014-09-05, ,Chimney Down,,,,,,,,,
97,,2663 BRADFORD ST,,38.30899718,-122.3204485,2014-09-17,Green,2014-09-17, , ,,,,,,,,,
98,,3841 BRIARWOOD ST,,38.32723409,-122.3198024,2014-09-25,Green,2014-09-25, ,No visual damage,,,,,,,,,
99,,1283 FOSTER RD,,38.27268493,-122.3068055,2014-09-05,Green,2014-09-05, ,minor cracking interior sheetrock,,,,,,,,,
100,,35 WINDSOR CT,,38.31936855,-122.2884778,2014-10-10,Green,2014-10-10, ,Minor exterior/interior cracks. No visual structural damage,,,,,,,,,
101,,2342 LAKEPARK DR,,38.31523008,-122.2801961,2014-09-29,Yellow,2014-09-29, ,Advise not to use LR & master/spare bdrm. Under chimney (Monitor use) crack visible but not leaving owner claims wobbly chim. verified by contractor.,,,,,,,,,
102,,1520 MAIN ST,,38.30313163,-122.2883179,2014-09-17,Yellow,2014-09-17, ,front entry stair separated from structure; sewer line leaking; chimney above roof fell away - engr eval req - do not use fireplace,,,,,,,,,
103,,2217 MARIN ST,,38.30697841,-122.3004715,2014-09-05,Red,2014-09-05, ,"walkway  nails all pulled away from beams, 2x12 suports roof overhang",,,,,,,,,
104,,3060 PIEDMONT AVE,,38.31980506,-122.2964176,2014-09-05,Yellow,2014-09-05, ,Several loose brick and missing mortor joint,,,,,,,,,
105,,975 FIRST ST,,38.29923584,-122.2850644,2014-09-05,Red,2014-09-05, ,Unsafe building (Bounty Hunter),,,,,,,,,
106,,2771 HILLTOP DR,,38.29279854,-122.3075652,2014-09-23,Yellow,2014-09-23, ,Smell gas @ H20 heater. Recommend inspection on H20 heater. Chimney issues reported 7 other possible cracks. Stay clear from area until inspected,,,,,,,,,
107,,2815 JEFFERSON ST,,38.31394315,-122.2976879,2014-09-05,Yellow,2014-09-05, ,No information provided,,,,,,,,,
108,,3009 STADIUM AVE,,38.31554685,-122.3009516,2014-09-05,Yellow,2014-09-05, ,"Chimney is slightly twisted above roof line, stair step cracking is visable on the face of chimney",,,,,,,,,
109,,1114 LEGION AVE,,38.30606948,-122.2927558,2014-09-05,Yellow,2014-09-05, ,chimney shifted with fallen bricks,,,,,,,,,
110,,745 CENTRAL AVE,,38.31340839,-122.2876866,2014-09-25,Green,2014-09-25, ,Owner not present no access- exterior assessment only GREEN TAG,,,,,,,,,
111,,1450 FIRST ST,,38.29749703,-122.2892868,2014-09-24,Yellow,2014-09-24, ,[Andaz] façade work in entry,,,,,,,,,
112,,2149 KAYWOODIE ST,,38.32697846,-122.3181603,2014-10-03,Yellow,2014-10-03, ,OK to occupy avoid chimney area,,,,,,,,,
113,,1475 FOURTH ST,,38.29506194,-122.2882654,2014-09-05,Yellow,2014-09-05, , ,,,,,,,,,
114,,1735 G ST,,38.30498367,-122.3003068,2014-09-17,Green,2014-09-17, ,exterior only,,,,,,,,,
115,," ,  ",,38.30498367,-122.3003068,2014-09-25,Green,2014-09-25, ,"Green tag, no comments",,,,,,,,,
116,,2121 BROWN ST,,38.30785935,-122.2940911,2014-09-05,Yellow,2014-09-05, ,block wall falling down,,,,,,,,,
117,,1929 FIRST ST,,38.29731517,-122.2949639,2014-09-16,Yellow,2014-09-16, ,cracked foundation,,,,,,,,,
118,,2 EDITH CT,,38.31517993,-122.3106917,2014-09-23,Yellow,2014-09-23, ,severe cracking at roofline; collapse hazard - use caution around fireplace and do not use,,,,,,,,,
119,,1140 MAIN ST,,38.30033258,-122.2862559,2014-09-05,Yellow,2014-09-05, ,"fallen debris from damaged parapet, remove harzards",,,,,,,,,
120,,2730 BEECHAM CT,,38.31865302,-122.2881143,2014-09-25,Green,2014-09-25, ,Minor ext. stucco cracks (intermitent) GREEN TAG,,,,,,,,,
121,,1721 LINCOLN AVE,,38.3072603,-122.3009571,2014-09-05,Yellow,2014-09-05, ,brick facia separated from building structure and may fall to the north,,,,,,,,,
122,,4386 CHABLIS DR,,38.32913415,-122.3353054,2014-09-17,Green,2014-09-17, ,"onwer has replaced water heater, AC united moved 1 ft, now bolted down; sidewalk has buckled",,,,,,,,,
123,,4060 ESCUELA DR,,38.34214882,-122.3228341,2014-09-05,Yellow,2014-09-05, ,cracked chimney,,,,,,,,,
124,,2530 BUTTE ST,,38.30938224,-122.3044432,2014-09-25,Green,2014-09-25, ,"Green tag, minor crack recommend further inspection under bldg",,,,,,,,,
125,,35 FOREST LN,,38.3135552,-122.3340967,2014-09-23,Yellow,2014-09-23, ,"carport/trellis, crack in slab from exterior patio to inside slab - crack in heavy timber carport post (only carport red tagged) [ATC filed with yellow]",,,,,,,,,
126,,3325 CRAIGIE CT,,38.3076898,-122.3326788,2014-09-29,Yellow,2014-09-29, ,"Drive way slab damaged, cracked & damage. Restricted to use",,,,,,,,,
127,,1119 CAYETANO DR,,38.2881022,-122.2667156,2014-09-29,Yellow,2014-09-29, ,"Observed mulitple crack & spalling of brick masonry on outside corners,fireplace fndn across drive width of fireplace",,,,,,,,,
128,,1750 COLEMAN ST,,38.30373679,-122.2925346,2014-09-23,Yellow,2014-09-23, ,No occupancy from area in front of chimney out to 20',,,,,,,,,
129,,1432 F ST,,38.30539871,-122.2966174,2014-09-05,Yellow,2014-09-05, ,"House Shifted, damage to cripple walls",,,,,,,,,
130,,474 ADAMS ST,,38.29241301,-122.2896346,2014-09-08,Green,2014-09-08, ,green - no placard posted - minor damage to exterior stucco,,,,,,,,,
131,,2489 CREEKSIDE AVE,,38.30721489,-122.3190961,2014-09-23,Yellow,2014-09-23, ,"Top portion of chimney is leaning, avoid area around chimney",,,,,,,,,
132,,2489 CREEKSIDE AVE,,38.30721489,-122.3190961,2014-09-05,Yellow,2014-09-05, ,Front porch pilaster and brick leaning and displaced,,,,,,,,,
133,,2499 CREEKSIDE AVE,,38.30729322,-122.3195069,2014-09-05,Yellow,2014-09-05, ,Chinmey fell over in the rear yard. Cracking in stucco at foundation in the front.,,,,,,,,,
134,,3448 CRESTVIEW WAY,,38.30162162,-122.3405249,2014-09-05,Yellow,2014-09-05, ,Damaged trellis on front of house,,,,,,,,,
135,,2719 CROCKER ST,,38.31747878,-122.2920088,2014-09-25,Green,2014-09-25, ,AC unit connection damage,,,,,,,,,
136,,417 CROSS ST,,38.29184138,-122.2832315,2014-09-05,Yellow,2014-09-05, ,Collapsed chimney - Correct under pining/shore/slope/post and beams,,,,,,,,,
137,,1796 ELM ST,,38.2899857,-122.2940285,2014-09-05,Green,2014-09-05, ,(Lutheran Church),,,,,,,,,
138,,1796 ELM ST,,38.2899857,-122.2940285,2014-09-25,Green,2014-09-25, ,Observed minor non-structural stress cracks in drywall and no issues observed (Social Hall),,,,,,,,,
139,,2581 ELM ST,,38.2896624,-122.303848,2014-09-05,Yellow,2014-09-05, ,cracks at 4' level - dislodge bricks,,,,,,,,,
140,,2591 ELM ST,,38.28966241,-122.3040653,2014-09-05,Yellow,2014-09-05, ,Chimney falling hazard,,,,,,,,,
141,,2620 ELM ST,,38.29006888,-122.3049249,2014-09-25,Green,2014-09-25, ,Stucco crack (4'long) @ NE corner@sill pl. line,,,,,,,,,
142,,2716 ELM ST,,38.29008038,-122.3060986,2014-09-29,Green,2014-09-29, ,No damage from EQ,,,,,,,,,
143,," ,  ",,38.29008038,-122.3060986,2014-09-25,Green,2014-09-25, ,No issues,,,,,,,,,
144,,2737 ELM ST,,38.28975876,-122.3063747,2014-10-07,Green,2014-10-07, ,Cracks at CMU stem wall in front of house,,,,,,,,,
145,,958 ELNORA CT,,38.31750375,-122.2934112,2014-09-05,Yellow,2014-09-05, ,"masonry façade, wood framing exposed to weather",,,,,,,,,
146,,958 ELNORA CT,,38.31750375,-122.2934112,2014-09-25,Yellow,2014-09-25, ,"Chimney damage near roof line, fall zone, taped off",,,,,,,,,
147,,1142 CAYETANO DR,,38.28867719,-122.2666822,2014-09-25,Green,2014-09-25, ,No comments,,,,,,,,,
148,,1200 CAYETANO DR,,38.28904331,-122.2649141,2014-09-25,Green,2014-09-25, ,Superficial interior sheet rock cracks. Wood chimney structure has minor cracking @ intersection of house. Contractor/Engineer should look @ wood,,,,,,,,,
149,,1204 CAYETANO DR,,38.28930737,-122.2648094,2014-09-25,Green,2014-09-25, ,No restrictions,,,,,,,,,
150,,1206 CAYETANO DR,,38.28926938,-122.2646152,2014-09-18,Yellow,2014-09-18, ,chimney separated from house - wood frame chimney separated from house - building permit required,,,,,,,,,
151,,1220 CAYETANO DR,,38.28920601,-122.2641715,2014-09-18,Yellow,2014-09-18, ,"chimney is leaning away from house, engineer to evaluate chimney to roof connection",,,,,,,,,
152,,1222 CAYETANO DR,,38.28921438,-122.2639943,2014-09-05,Green,2014-09-05, ,minor cracking at openings and interior coerns at top of landing - cosmetic,,,,,,,,,
153,,1258 CAYETANO DR,,38.288617,-122.2629153,2014-09-05,Green,2014-09-05, ,"roof tiles missing, stucco cracks at front entry",,,,,,,,,
154,,1264 CAYETANO DR,,38.28856497,-122.2625534,2014-09-05,Green,2014-09-05, ,"drywall & stucco cracks at kitchen, family room, garage",,,,,,,,,
155,,1264 CAYETANO DR,,38.28856497,-122.2625534,2014-09-24,Green,2014-09-24, ,no damages - minor cracks,,,,,,,,,
156,,820 CAYMUS ST,,38.30335327,-122.2856261,2014-09-05,Yellow,2014-09-05, ,"CMU wall at garage has 1/2"" crack at upper section - have engr verify integrity",,,,,,,,,
157,,850 CAYMUS ST,,38.30308724,-122.2861535,2014-09-05,Yellow,2014-09-05, ,owner to have professional engineer or contractor evaluate foundation and porch,,,,,,,,,
158,,905 CAYMUS ST,,38.30237604,-122.286587,2014-09-17,Yellow,2014-09-17, ,"movement 1/2"" to 1"" at north half of struvture to the west - SE to inspect foundation bolts",,,,,,,,,
159,,927 CAYMUS ST,,38.30213325,-122.2868765,2014-09-05,Yellow,2014-09-05, ,Chimney down,,,,,,,,,
160,,2402 COLINA CT,,38.28474206,-122.30179,2014-09-05,Yellow,2014-09-05, ,stucco cracking,,,,,,,,,
161,,2402 COLINA CT,,38.28474206,-122.30179,2014-09-11,Green,2014-09-11, , ,,,,,,,,,
162,,2406 COLINA CT,,38.28467007,-122.3017667,2014-09-05,Yellow,2014-09-05, ,stucco cracking,,,,,,,,,
163,,2410 COLINA CT,,38.28459338,-122.3017562,2014-09-05,Yellow,2014-09-05, ,stucco cracking,,,,,,,,,
164,,2414 COLINA CT,,38.28457401,-122.301542,2014-09-05,Yellow,2014-09-05, ,stucco cracking,,,,,,,,,
165,,2418 COLINA CT,,38.28460432,-122.3015421,2014-09-05,Yellow,2014-09-05, ,stucco cracking,,,,,,,,,
166,,2422 COLINA CT,,38.28463431,-122.3015405,2014-09-05,Yellow,2014-09-05, ,stucco cracking,,,,,,,,,
167,,2426 COLINA CT,,38.28466066,-122.3015427,2014-09-05,Yellow,2014-09-05, ,stucco cracking,,,,,,,,,
168,,1071 DELBROOK DR,,38.30444351,-122.3426155,2014-09-29,Yellow,2014-09-29, ,Chimney damaged-Restricted area around chimney,,,,,,,,,
169,,2035 DELPHA DR,,38.31512782,-122.3087454,2014-09-05,Yellow,2014-09-05, ,"chimney broken at roofline, avoid using side yard near chimney until hazard is mitigated",,,,,,,,,
170,,2071 DELPHA DR,,38.31497678,-122.3095582,2014-09-05,Yellow,2014-09-05, ,"chimney broken at roofline, avoid side yard near chimney until hazard is mitigated",,,,,,,,,
171,,2164 DELPHA DR,,38.31482317,-122.3118777,2014-09-25,Green,2014-09-25, ,No comments,,,,,,,,,
172,,2935 DEVITA DR,,38.29208862,-122.3111969,2014-09-05,Yellow,2014-09-05, ,"Chimney collapsed onto cone dwy, with no collateral damage",,,,,,,,,
173,,2935 DEVITA DR,,38.29208862,-122.3111969,2014-09-05,Green,2014-09-05, ,Collapsed chimney,,,,,,,,,
174,,2972 DEVITA DR,,38.29241522,-122.3121612,2014-09-05,Green,2014-09-05, ,"Unreinforced masonry, screen wall at sidewalk and adjacent back property line has fallen",,,,,,,,,
175,,3013 DEVITA DR,,38.29270201,-122.3125941,2014-09-24,Yellow,2014-09-24, ,chimney crack per owner - could not verify from below (chimney intact),,,,,,,,,
176,,1427 F ST,,38.30499959,-122.2964992,2014-09-24,Green,2014-09-24, ,Required to evaluate front porch columns,,,,,,,,,
177,,2547 ADRIAN ST,,38.31382317,-122.2938597,2014-10-03,Yellow,2014-10-03, ,Masonry ext. walk got moderate cracks. Chimney has been cracked,,,,,,,,,
178,,2632 ADRIAN ST,,38.31523749,-122.2936555,2014-09-25,Green,2014-09-25, ,No visual damage,,,,,,,,,
179,,2670 ADRIAN ST,,38.31586542,-122.2938374,2014-09-24,Green,2014-09-24, ,Exterior only-no damage observed no restriciton,,,,,,,,,
180,,2671 ADRIAN ST,,38.31574549,-122.2944932,2014-09-24,Green,2014-09-24, ,"Minor cracking exterior cement plaster & minor cracking along GYP, BD, Joints",,,,,,,,,
181,,1005 ALABAMA ST,,38.31130897,-122.2756983,2014-09-05,Green,2014-09-05, ,structure good,,,,,,,,,
182,,1018 ALABAMA ST,,38.31179684,-122.274903,2014-09-05,Yellow,2014-09-05, ,cracking and possible displacement/occupancy ok/fireplace cracking,,,,,,,,,
183,,73 BELLEVUE AVE,,38.29694121,-122.310505,2014-09-25,Green,2014-09-25, ,No comments,,,,,,,,,
184,,3703 ARGYLE ST,,38.32097987,-122.3262449,2014-09-24,Green,2014-09-24, ,"the exterior of the dwelling inspected and deemed safe to occ - superficial stucco, repairs in progress",,,,,,,,,
185,,1316 ARROYO DR,,38.30110143,-122.2894465,2014-09-05,Yellow,2014-09-05, , ,,,,,,,,,
186,,2315 ARTHUR ST,,38.28051916,-122.2964327,2014-09-25,Green,2014-09-25, ,No damage,,,,,,,,,
187,,2364 ARTHUR ST,,38.28092288,-122.297707,2014-09-29,Green,2014-09-29, ,No comments,,,,,,,,,
188,,146 ASHLAR DR,,38.31291818,-122.2750286,2014-09-05,Yellow,2014-09-05, ,restricted to front door use only-cracked on multi fireplaces,,,,,,,,,
189,,177 ASHLAR DR,,38.31334771,-122.2733687,2014-09-05,Yellow,2014-09-05, ,chimney on verge of falling,,,,,,,,,
190,,203 ASHLAR DR,,38.3133578,-122.2731453,2014-09-05,Yellow,2014-09-05, ,Cracked and displaced chimney,,,,,,,,,
191,,220 ASHLAR DR,,38.31387197,-122.272863,2014-10-02,Green,2014-10-02, ,No comments,,,,,,,,,
192,,16 AVON AVE,,38.29451693,-122.3041844,2014-09-25,Green,2014-09-25, ,No comments (other residential),,,,,,,,,
193,,1413 BANKS AVE,,38.30639385,-122.2729972,2014-09-11,Green,2014-09-11, , ,,,,,,,,,
194,,2331 BARRY ST,,38.27985575,-122.2968414,2014-09-25,Green,2014-09-25, ,"Drywall cracks in interior, no other damage",,,,,,,,,
195,,1175 AUSTIN WAY,,38.30937806,-122.3284721,2014-09-05,Yellow,2014-09-05, ,Upper portion of chimney collapse.,,,,,,,,,
196,,2714 AZALEA ST,,38.31779725,-122.2891429,2014-09-29,Green,2014-09-29, ,No damage observed,,,,,,,,,
197,,2307 BARRY ST,,38.27982968,-122.2962034,2014-09-25,Green,2014-09-25, ,"No damage noted from front yard, could not observe chimney",,,,,,,,,
198,,2649 BASSWOOD CT,,38.31640793,-122.3272146,2014-09-05,Yellow,2014-09-05, ,chimney above roofline - in process of removing,,,,,,,,,
199,,3502 BAXTER AVE,,38.32387863,-122.305206,2014-09-23,Yellow,2014-09-23, ,"chimney collpased above roof, debris removed; do not use fireplace",,,,,,,,,
200,,3509 BAXTER AVE,,38.32398226,-122.3061299,2014-09-05,Yellow,2014-09-05, ,fireplace shear,,,,,,,,,
201,,3512 BAXTER AVE,,38.32448476,-122.3060041,2014-09-05,Yellow,2014-09-05, ,top of brick chimney down,,,,,,,,,
202,,2209 BERKS ST,,38.32536036,-122.3196196,2014-09-23,Yellow,2014-09-23, ,Chimney majorely damaged need permit to repair,,,,,,,,,
203,,2133 BIG RANCH RD,,38.33045516,-122.2915426,2014-09-18,Yellow,2014-09-18, ,"cracking of stucco, interior cracking, one severe at walls of fireplace, patio cover - danger of collapse - needs repair",,,,,,,,,
204,,1057 BIRKDALE DR,,38.29200584,-122.2676636,2014-09-05,Green,2014-09-05, ,surface cracks in sheetrock,,,,,,,,,
205,,35 BLACKBERRY DR,,38.32839765,-122.2988991,2014-09-29,Green,2014-09-29, ,No damage minor stucco cracks,,,,,,,,,
206,,43 BLUE JAY CT,,38.30826888,-122.3509534,2014-09-08,Yellow,2014-09-08, ,do not inhabit or utilize areas adjacent to chimney,,,,,,,,,
207,,60 BLUE JAY CT,,38.30813893,-122.3523564,2014-09-05,Yellow,2014-09-05, ,Follow-up with Geo/ pool heaving/,,,,,,,,,
208,,368 BLUE JAY WAY,,38.30850629,-122.349652,2014-09-05,Yellow,2014-09-05, ,chimney down at roof,,,,,,,,,
209,,380 BLUE JAY WAY,,38.30822778,-122.3490128,2014-09-25,Green,2014-10-02, ,"Very minor stucco cracks, no apparent cracks @ masonary, minor crack @ firebox/chimney to wall",,,,,,,,,
210,,381 BLUE JAY WAY,,38.30870955,-122.3487773,2014-09-05,Yellow,2014-09-05, ,Chimney off of roof,,,,,,,,,
211,,2480 GINA DR,,38.32328729,-122.3241757,2014-09-29,Yellow,2014-09-29, ,From front: see chimney faliure @ roofline house fenced off so we could not tape off fall zone; possible foundation crack,,,,,,,,,
212,,2527 GINA DR,,38.32215233,-122.3247411,2014-09-29,Green,2014-09-29, ,No Structual Damage vivisble,,,,,,,,,
213,,4 GLEN CT,,38.31408126,-122.3196412,2014-09-05,Yellow,2014-09-05, ,foundating supportin post at front porch damaged,,,,,,,,,
214,,18 GLEN CT,,38.31378798,-122.3206343,2014-09-05,Yellow,2014-09-05, ,"moderate damage tolower bathroom wall, front porch over hang moved - OK to occ",,,,,,,,,
215,,23 GLEN CT,,38.31327193,-122.3206609,2014-09-05,Yellow,2014-09-05, ,roof tile damage - roof deflectio noted over dining room - OK to occ,,,,,,,,,
216,,1818 BROWN ST,,38.30460124,-122.2907635,2014-10-02,Green,2014-10-02, ,Minor indeterminate cracks on chimney @ interface w/roof,,,,,,,,,
217,,1830 BROWN ST,,38.30473757,-122.2908747,2014-09-05,Yellow,2014-09-05, ,do not use fireplace until chimney is repaired,,,,,,,,,
218,,1835 BROWN ST,,38.30456288,-122.2916475,2014-10-03,Yellow,2014-10-03, ,"Moderate cracks around chimney & porch, also cracks in backroom H wall E corner exter. Cracks @ same location",,,,,,,,,
219,,1845 BROWN ST B,,38.30473496,-122.2916165,2014-10-03,Yellow,2014-10-03, ,Moderate to severe cracks on brm walls. Ext. & Int. ceilings has moderate cracks,,,,,,,,,
220,,1859 BROWN ST,,38.30474724,-122.2919395,2014-09-05,Yellow,2014-09-05, ,do not use fireplace until chimney is repaired,,,,,,,,,
221,,1866 BROWN ST,,38.30524582,-122.2912936,2014-09-05,Yellow,2014-09-05, ,do not use fireplace until chimney is repaired,,,,,,,,,
222,,1866 BROWN ST,,38.30524582,-122.2912936,2014-09-25,Green,2014-09-25, ,"Chimney cracked appears to be old, chimeny has minor old hairline cracks, appears functional. No restrictions",,,,,,,,,
223,,1871 BROWN ST,,38.30481527,-122.2921816,2014-09-05,Yellow,2014-09-05, ,do not use fireplace until chimney is repaired,,,,,,,,,
224,,1875 BROWN ST,,38.30494324,-122.2922825,2014-09-05,Yellow,2014-09-05, ,do not use fireplace until chimney is repaired,,,,,,,,,
225,,20 GARFIELD LN,,38.33298403,-122.2961452,2014-09-05,Yellow,2014-09-05, ,"windows walls racked, FP chimney broke at roofline; repair or remove",,,,,,,,,
226,,56 GARFIELD LN,,38.33174336,-122.2988569,2014-09-29,Yellow,2014-09-29, ,Fireplace chimney down @ roofline-Damaged chimney removed-NO HAZARD,,,,,,,,,
227,,143 GARTH ST,,38.33852361,-122.328213,2014-09-24,Green,2014-09-24, ,Mobile hm. Set on concrete blks as per CDHCD division of codes & standards. Previously posted green placard to remain,,,,,,,,,
228,,251 GASSER DR,,38.28365718,-122.2789721,2014-09-05,Yellow,2014-09-05, ,collapse of hanging lights,,,,,,,,,
229,,57 GEORGE ST,,38.31014007,-122.295656,2014-09-05,Yellow,2014-09-05, ,"Walls off foundation1-3""",,,,,,,,,
230,,1107 GEORGE ST,,38.31014483,-122.295479,2014-09-05,Red,2014-09-05, ,house shifted off foundation,,,,,,,,,
231,,1645 GEORGIA ST,,38.3025245,-122.2962347,2014-09-05,Yellow,2014-09-05, ,top 1/4 of chimney down,,,,,,,,,
232,,1731 GEORGIA ST,,38.30316182,-122.2964377,2014-09-05,Yellow,2014-09-05, ,Chimney Down,,,,,,,,,
233,,1820 GEORGIA ST,,38.3038694,-122.2961937,2014-09-05,Yellow,2014-09-05, ,do not use carport,,,,,,,,,
234,,1820 GEORGIA ST,,38.3038694,-122.2961937,2014-09-17,Yellow,2014-09-17, ,already tagged yellow on 24 Aug 14,,,,,,,,,
235,,2145 GEORGIA ST,,38.30652326,-122.2973647,2014-09-05,Yellow,2014-09-05, ,Porch support columns have slipped off foundation.,,,,,,,,,
236,,2205 GEORGIA ST,,38.30685466,-122.2975049,2014-09-05,Yellow,2014-09-05, ,chimney separated from bldg,,,,,,,,,
237,,2325 GEORGIA ST,,38.30783728,-122.2978085,2014-09-05,Yellow,2014-09-05, ,Chimney foundation bricks knocked out of alignment,,,,,,,,,
238,,2350 GERALD ST,,38.27891655,-122.2977011,2014-09-25,Green,2014-09-25, ,"Cracked mortar running diag along outside of chim. It appears to have pulled away fr. House <1/4"", minor cracked evident in mortar for int. part damage observed",,,,,,,,,
239,,4001 FOXRIDGE WAY,,38.3117901,-122.342598,2014-09-17,Green,2014-09-17, ,owner not present - no visible damage from street,,,,,,,,,
240,,4007 FOXRIDGE WAY,,38.31238764,-122.3425788,2014-09-29,Green,2014-09-29, ,Hairline cracks in stucco,,,,,,,,,
241,,4012 FOXRIDGE WAY,,38.31239731,-122.3419658,2014-09-05,Yellow,2014-09-05, ,detached section of brick wainscoat at entry,,,,,,,,,
242,,271 FRANKLIN ST,,38.29065138,-122.2889574,2014-09-05,Yellow,2014-09-05, ,Collapsed chimney. Part of the chimney is cracked and not fallen. Avoid chimney area,,,,,,,,,
243,,313 FRANKLIN ST,,38.2913777,-122.2887178,2014-09-05,Yellow,2014-09-05, ,chimney,,,,,,,,,
244,,320 FRANKLIN ST,,38.29132909,-122.2880053,2014-09-05,Yellow,2014-09-05, ,chimney,,,,,,,,,
245,,333 FRANKLIN ST,,38.29161978,-122.2886172,2014-09-05,Yellow,2014-09-05, ,chimney,,,,,,,,,
246,,346 FRANKLIN ST,,38.29164293,-122.2878889,2014-09-05,Yellow,2014-09-05, ,porch damage,,,,,,,,,
247,,386 FRANKLIN ST,,38.29220174,-122.2878084,2014-09-05,Yellow,2014-09-05, ,chimney,,,,,,,,,
248,,709 FRANKLIN ST,,38.29561768,-122.2873106,2014-09-05,Yellow,2014-09-05, ,Family Services of Napa Valley,,,,,,,,,
249,,308 FRANKLIN ST,,38.2911622,-122.2881353,2014-09-25,Green,2014-09-25, ,"Settlement @ porch stops to driveway, apparans supported @ chimney to wall (1/2 "") No visible cracks",,,,,,,,,
250,,817 FRANKLIN ST,,38.29638005,-122.2880131,2014-09-05,Green,2014-09-05, ,stopped work-sheetrock installation,,,,,,,,,
251,,70 FRANKLIN ST,,38.28741601,-122.2894961,2014-09-29,Green,2014-09-29, ,No damage minor plaster cracks,,,,,,,,,
252,,1726 G ST,,38.3055408,-122.3003429,2014-09-16,Yellow,2014-09-16, ,"freestanding cmu wall at east property line is leaning, impacts neighbors at 1718 G St, aftershocks may cause collapse/no access/demolis or repair",,,,,,,,,
253,,1408 G ST,,38.30628591,-122.2964326,2014-09-25,Green,2014-09-25, ,"Numerous areas where plaster is cracked inside,almost all areas cracks run fr corners of doors/openings/windows & extend 3' across the wall diagonally 45 deg",,,,,,,,,
254,,3409 BOULDER CREEK CT,,38.30220476,-122.3394828,2014-10-02,Green,2014-10-02, ,"Minor cracks on walls ext & minor cracks around chimney, ceiling. Owner reports there is difficulty to open & close garage door",,,,,,,,,
255,,3417 BOULDER CREEK CT,,38.30203071,-122.3394964,2014-09-25,Green,2014-09-25, ,"Mior cracks in interior drywall, no exterior damage noted",,,,,,,,,
256,,3421 BOULDER CREEK CT,,38.30181248,-122.3395334,2014-10-08,Yellow,2014-10-08, ,Keep area clear around chimney,,,,,,,,,
257,,3447 BOULDER CREEK CT,,38.30224463,-122.340062,2014-10-08,Yellow,2014-10-08, ,Keep area clear around chimney,,,,,,,,,
258,,3520 BROWNS VALLEY RD,,38.30654693,-122.3400605,2014-09-05,Yellow,2014-09-05, ,Brick chimney collapsed onto the ground and front entry stairs and landing have slumped.,,,,,,,,,
259,,2432 BRAETON CT,,38.30806007,-122.3180378,2014-09-24,Green,2014-09-24, ,requst to eval chimney - green tag reposted,,,,,,,,,
260,,3869 BRIARWOOD ST,,38.32743983,-122.3194226,2014-09-05,Yellow,2014-09-05, ,full height wall support/supporting roof coming off foundation - occupancy ok,,,,,,,,,
261,,821 FOSTER RD,,38.28135596,-122.3062,2014-10-03,Green,2014-10-03, ,"Interior cracking leads to interface, recomment to be repaired, minor cracking on fireplace wall/ S &E wall kitchen interface",,,,,,,,,
262,,81 FOUNTAIN GROVE CIR,,38.28135596,-122.3062,2014-10-07,Yellow,2014-10-07, ,"Safe to occupy, clubhouse & pool except areas adjacent self supporting trellis. Standard Engineer inspection req'd",,,,,,,,,
263,,1340 FOURTH ST,,38.29579707,-122.2868383,2014-09-05,Yellow,2014-09-05, ,damaged chimney - leaning,,,,,,,,,
264,,1427 FOURTH ST,,38.2952358,-122.2874822,2014-09-05,Red,2014-09-05, ,"collapse, leaning, racking",,,,,,,,,
265,,1429 FOURTH ST,,38.29519772,-122.2874686,2014-09-05,Red,2014-09-05, ,"collapse, leaning, racking",,,,,,,,,
266,,1447 FOURTH ST,,38.29514925,-122.2878084,2014-09-08,Yellow,2014-09-08, ,plaster separted from lath throughout interior - front business only - remove loose materials to allow public access,,,,,,,,,
267,,1029 CLARK ST,,38.31059671,-122.2745381,2014-09-05,Green,2014-09-05, ,structure good,,,,,,,,,
268,,1030 CLARK ST,,38.31107245,-122.274128,2014-09-05,Green,2014-09-05, ,structure good,,,,,,,,,
269,,1032 CLARK ST,,38.31106943,-122.2738458,2014-09-05,Green,2014-09-05, ,structure good,,,,,,,,,
270,,1033 CLARK ST,,38.31070485,-122.2739123,2014-09-05,Green,2014-09-05, ,structure good,,,,,,,,,
271,,1035 CLARK ST,,38.31065774,-122.2735732,2014-09-05,Green,2014-09-05, ,structure good,,,,,,,,,
272,,1036 CLARK ST A,,38.31117004,-122.2734253,2014-09-05,Green,2014-09-05, , ,,,,,,,,,
273,,1036 CLARK ST B,,38.31117004,-122.2734253,2014-09-05,Green,2014-09-05, ,structure good,,,,,,,,,
274,,1036 CLARK ST,,38.31117004,-122.2734253,2014-09-05,Green,2014-09-05, , ,,,,,,,,,
275,,1037 CLARK ST,,38.31067695,-122.2733442,2014-09-05,Green,2014-09-05, ,structure good,,,,,,,,,
276,,1038 CLARK ST,,38.31125119,-122.2732191,2014-09-05,Green,2014-09-05, ,structure good,,,,,,,,,
277,,1039 CLARK ST,,38.31069192,-122.2731667,2014-09-05,Green,2014-09-05, ,structure good,,,,,,,,,
278,,1040 CLARK ST,,38.31113329,-122.2729943,2014-09-05,Green,2014-09-05, ,structure good,,,,,,,,,
279,,1041 CLARK ST,,38.31070628,-122.2729945,2014-09-05,Green,2014-09-05, ,structure good,,,,,,,,,
280,,1043 CLARK ST,,38.3107209,-122.2728168,2014-09-05,Green,2014-09-05, ,structure good,,,,,,,,,
281,,1045 CLARK ST,,38.31073509,-122.2726429,2014-09-05,Green,2014-09-05, ,structure good,,,,,,,,,
282,,1046 CLARK ST,,38.31126499,-122.2722137,2014-09-05,Green,2014-09-05, ,structure good,,,,,,,,,
283,,1047 CLARK ST,,38.31075544,-122.2723889,2014-09-05,Green,2014-09-05, ,structure good,,,,,,,,,
284,,1047 CLARK ST,,38.31075544,-122.2723889,2014-09-05,Green,2014-09-05, ,structure good,,,,,,,,,
285,,1100 CLARK ST,,38.31137498,-122.2716799,2014-09-05,Green,2014-09-05, ,structure good,,,,,,,,,
286,,1101 CLARK ST,,38.31081067,-122.2720106,2014-09-05,Green,2014-09-05, ,structure good,,,,,,,,,
287,,2342 CHAD CT,,38.30404876,-122.3109568,2014-09-25,Green,2014-09-25, ,Cracking of GYP board,,,,,,,,,
288,,4206 CHARDONNAY CT,,38.3304239,-122.3292796,2014-09-17,Yellow,2014-09-17, ,"engr must eval chimney, sill placte connections, post to header in family room",,,,,,,,,
289,,4206 CHARDONNAY CT,,38.3304239,-122.3292796,2014-09-17,Yellow,2014-09-17, ,previously visited,,,,,,,,,
290,,4207 CHARDONNAY CT,,38.3301696,-122.3296812,2014-10-02,Green,2014-10-02, ,minor cracks on bricks,,,,,,,,,
291,,1006 CHARLSON WAY,,38.30338191,-122.3173006,2014-09-05,Green,2014-09-05, , ,,,,,,,,,
292,,1043 CHARLSON WAY,,38.30409514,-122.3167379,2014-09-05,Green,2014-09-05, ,structure good,,,,,,,,,
293,,261 CHELSEA AVE,,38.30033379,-122.3116663,2014-09-29,Green,2014-09-29, ,"Exterior inspection only GREEN- no damage seen inside, owner called Left a message.",,,,,,,,,
294,,271 CHELSEA AVE,,38.3004817,-122.3115874,2014-09-25,Green,2014-09-25, ,"Green tag, minor cracking, no structual damage",,,,,,,,,
295,,115 CHERRYVIEW CT,,38.28828552,-122.3058453,2014-09-25,Green,2014-09-25, ,"Green tag, no comments",,,,,,,,,
296,,148 CHERRYVIEW CT,,38.28878816,-122.3052501,2014-09-25,Green,2014-09-25, ,GREEN TAG no comments,,,,,,,,,
297,,148 CHERRYVIEW CT,,38.28878816,-122.3052501,2014-09-29,Green,2014-09-29, ,"No damage, exterior only",,,,,,,,,
298,,7 CHESAPEAKE CT,,38.27690064,-122.2923235,2014-09-25,Green,2014-09-25, ,Superficial ext & int cracks @ door & window corners,,,,,,,,,
299,,835 CHURCH ST,,38.2957166,-122.2898958,2014-09-05,Yellow,2014-09-05, , ,,,,,,,,,
300,," ,  ",,38.2957166,-122.2898958,2014-09-05,Green,2014-09-05, ,structure good,,,,,,,,,
301,,3263 CLAREMONT WAY,,38.32054144,-122.3005622,2014-09-05,Green,2014-09-05, ,structure good,,,,,,,,,
302,,2581 BUTTE ST,,38.31024537,-122.3052612,2014-09-05,Yellow,2014-09-05, ,concrete wall in backyard collapse,,,,,,,,,
303,,2589 BUTTE ST,,38.31042092,-122.3053114,2014-09-05,Yellow,2014-09-05, ,"Cracked chimney 12-24"" on horizontal",,,,,,,,,
304,,242 BUTTERCUP CT,,38.29108331,-122.2663229,2014-09-25,Green,2014-09-25, ,No cracks observed from exterior,,,,,,,,,
305,,3411 ELLEN WAY,,38.30790197,-122.3393451,2014-09-05,Yellow,2014-09-05, ,chimney,,,,,,,,,
306,,2218 ESSEX ST,,38.32153338,-122.3177115,2014-10-08,Green,2014-10-08, ,No comments,,,,,,,,,
307,,1135 ESTATES DR,,38.30121766,-122.3452798,2014-09-11,Green,2014-09-11, , ,,,,,,,,,
308,,2010 EUCLID AVE,,38.31078352,-122.3068063,2014-09-05,Yellow,2014-09-05, ,cracked with loose section of chimney,,,,,,,,,
309,,2020 EUCLID AVE,,38.31073417,-122.307076,2014-09-05,Yellow,2014-09-05, ,chimney section above roof line has been removed,,,,,,,,,
310,,2036 EUCLID AVE,,38.31063562,-122.3076141,2014-09-05,Yellow,2014-09-05, ,chimney collapsed,,,,,,,,,
311,,2137 EUCLID AVE,,38.30973692,-122.3104107,2014-09-23,Yellow,2014-09-23, ,owner in process of removing chimney debris - do not use fireplace,,,,,,,,,
312,,2145 EUCLID AVE,,38.3096865,-122.3106885,2014-09-25,Green,2014-09-25, ,"Green tag, no comments",,,,,,,,,
313,,2181 EUCLID AVE,,38.30948926,-122.3117569,2014-09-25,Green,2014-09-25, ,"Green tag, no comments",,,,,,,,,
314,,2190 EUCLID AVE,,38.30980534,-122.3121525,2014-09-23,Yellow,2014-09-23, ,top portions of chimney collpased into neighbors yard,,,,,,,,,
315,,2197 EUCLID AVE,,38.30918856,-122.3133056,2014-10-02,Green,2014-10-02, ,No comments,,,,,,,,,
316,,2200 EUCLID AVE,,38.30950952,-122.3137029,2014-09-05,Yellow,2014-09-05, ,chimney falling hazard,,,,,,,,,
317,,2261 EVA ST,,38.27865027,-122.2952171,2014-09-23,Yellow,2014-09-23, ,chimney damage - int face fell - do not use side yard adj to chimney - taped in living room,,,,,,,,,
318,,3768 BEL AIRE PLZ,,38.32358347,-122.3066029,2014-09-05,Green,2014-09-05, ,(Bel Aire Plaza) damage limited to roofing and contents,,,,,,,,,
319,,3770 BEL AIRE PLZ,,38.32322189,-122.3063015,2014-09-05,Green,2014-09-05, ,(Bel Aire Plaza) damage limited to roofing and contents,,,,,,,,,
320,,3780 BEL AIRE PLZ,,38.32390888,-122.3071042,2014-09-05,Green,2014-09-05, ,(Bel Aire Plaza) damage limited to roofing and contents,,,,,,,,,
321,,3299 CLAREMONT WAY,,38.32147826,-122.3032873,2014-09-05,Green,2014-09-05, ,structure good,,,,,,,,,
322,," ,  ",,38.32147826,-122.3032873,2014-09-05,Green,2014-09-05, ,structure good,,,,,,,,,
323,,3789 CLARA CT,,38.31991472,-122.3281967,2014-09-29,Green,2014-09-29, ,"Minor cracks in walls, no damage",,,,,,,,,
324,,3798 CLARA DR,,38.32078738,-122.3276907,2014-10-02,Green,2014-10-02, ,URM fence has been detached & unstable. Restricted areas. Minor crack btwn root diaphragm & wall,,,,,,,,,
325,,3773 CLARA CT,,38.31937184,-122.3280581,2014-09-05,Green,2014-09-05, ,chimney removed/ fell off-already removed,,,,,,,,,
326,,3263 CLAREMONT WAY,,38.32054144,-122.3005622,2014-09-05,Green,2014-09-05, ,(Travis),,,,,,,,,
327,,3263 CLAREMONT WAY,,38.32054144,-122.3005622,2014-09-05,Green,2014-09-05, ,(Formatech),,,,,,,,,
328,,3273 CLAREMONT WAY,,38.32038407,-122.3012983,2014-09-05,Green,2014-09-05, ,(medical offices),,,,,,,,,
329,,3285 CLAREMONT WAY,,38.32024026,-122.3032193,2014-09-05,Green,2014-09-05, ,interior sheet rock partition walls (Kaiser Medical Offices),,,,,,,,,
330,,3299 CLAREMONT WAY,,38.32147826,-122.3032873,2014-09-05,Green,2014-09-05, ,(Soto Family NonProfit  Center),,,,,,,,,
331,,2455 CLARET ST,,38.32786506,-122.3290374,2014-09-25,Green,2014-09-25, ,Minor cracks @lower part of the brick chimney,,,,,,,,,
332,," ,  ",,38.32786506,-122.3290374,2014-09-05,Green,2014-09-05, ,structure good,,,,,,,,,
333,,1005 CLARK ST,,38.31045276,-122.2758984,2014-09-05,Green,2014-09-05, ,structure good,,,,,,,,,
334,,1009 CLARK ST,,38.31042984,-122.2756753,2014-09-05,Green,2014-09-05, ,structure good,,,,,,,,,
335,,1014 CLARK ST,,38.31095817,-122.2758621,2014-09-05,Green,2014-09-05, ,structure good,,,,,,,,,
336,,1015 CLARK ST,,38.3104496,-122.2754387,2014-09-05,Green,2014-09-05, ,structure good,,,,,,,,,
337,,1018 CLARK ST,,38.31094547,-122.2754804,2014-09-05,Green,2014-09-05, ,structure good,,,,,,,,,
338,,1019 CLARK ST,,38.31053701,-122.2752042,2014-09-05,Green,2014-09-05, ,structure good,,,,,,,,,
339,,1020 CLARK ST,,38.31096057,-122.2752733,2014-09-05,Green,2014-09-05, ,structure good,,,,,,,,,
340,,1022 CLARK ST,,38.31096775,-122.2750136,2014-09-05,Green,2014-09-05, ,structure good,,,,,,,,,
341,,1023 CLARK ST,,38.3105553,-122.2749782,2014-09-05,Green,2014-09-05, ,structure good,,,,,,,,,
342,,1024 CLARK ST,,38.31096951,-122.2748412,2014-09-05,Green,2014-09-05, ,structure good,,,,,,,,,
343,,3375 ELLEN WAY,,38.30793574,-122.3363075,2014-10-09,Yellow,2014-10-09, ,Chimney falling-requires permit for replacement. Avoid area around chimney,,,,,,,,,
344,,3389 ELLEN WAY,,38.30789473,-122.3378459,2014-09-05,Yellow,2014-09-05, ,repairs needed to chimney,,,,,,,,,
345,,3408 ELLEN WAY,,38.308455,-122.3389497,2014-09-29,Yellow,2014-09-29, ,Chimney damaged-ok to occupy,,,,,,,,,
346,,3411 ELLEN WAY,,38.30790197,-122.3393451,2014-09-29,Yellow,2014-09-29, ,Restricted area around chimney,,,,,,,,,
347,,1321 ELM ST,,38.28923373,-122.2882502,2014-09-05,Green,2014-09-05, ,structure good,,,,,,,,,
348,,1323 ELM ST,,38.28924608,-122.2883044,2014-09-05,Green,2014-09-05, ,structure good,,,,,,,,,
349,,1324 ELM ST,,38.28958987,-122.2882211,2014-09-05,Green,2014-09-05, ,structure good,,,,,,,,,
350,,1330 ELM ST,,38.28972126,-122.2880498,2014-09-05,Green,2014-09-05, ,structure good,,,,,,,,,
351,,1350 ELM ST,,38.28968236,-122.2884429,2014-09-05,Yellow,2014-09-05, ,avoid using the front entrance,,,,,,,,,
352,,1425 ELM ST,,38.28947495,-122.2894363,2014-09-05,Green,2014-09-05, ,structure good,,,,,,,,,
353,,1429 ELM ST,,38.28950999,-122.2896838,2014-09-05,Green,2014-09-05, ,structure good,,,,,,,,,
354,,1455 ELM ST,,38.28958987,-122.2902497,2014-09-05,Green,2014-09-05, , ,,,,,,,,,
355,,1555 ELM ST,,38.28953506,-122.2906447,2014-09-05,Green,2014-09-05, ,structure good,,,,,,,,,
356,,1601 ELM ST,,38.28947753,-122.2908314,2014-09-05,Green,2014-09-05, ,structure good,,,,,,,,,
357,,1603 ELM ST,,38.2894769,-122.2910275,2014-09-05,Green,2014-09-05, ,structure good,,,,,,,,,
358,,1615 ELM ST,,38.28952495,-122.2912342,2014-09-05,Green,2014-09-05, ,structure good,,,,,,,,,
359,,1633 ELM ST,,38.28952409,-122.2914319,2014-09-05,Green,2014-09-05, ,structure good,,,,,,,,,
360,,1641 ELM ST,,38.28952332,-122.2916172,2014-09-05,Green,2014-09-05, ,structure good,,,,,,,,,
361,,1643 ELM ST,,38.28928693,-122.2916376,2014-09-05,Yellow,2014-09-05, ,Cracked Chimney,,,,,,,,,
362,,1653 ELM ST,,38.28953958,-122.2918231,2014-09-05,Yellow,2014-09-05, ,Cracked chimney,,,,,,,,,
363,,1653 ELM ST,,38.28953958,-122.2918231,2014-09-05,Green,2014-09-05, ,structure good,,,,,,,,,
364,,1715 ELM ST,,38.28954665,-122.2923168,2014-09-05,Yellow,2014-09-05, ,Cracked chimney,,,,,,,,,
365,,3323 CRAIGIE CT,,38.30769158,-122.3324254,2014-09-05,Yellow,2014-09-05, ,cracks in chimney/floor joists sagging/cracking stucco in rear,,,,,,,,,
366,,105 ELODIA CIR,,38.3021974,-122.3125787,2014-10-08,Green,2014-10-08, ,GREEN tag declined by owner,,,,,,,,,
367,,960 CAYMUS ST,,38.30279419,-122.2868197,2014-09-05,Yellow,2014-09-05, ,General cracking along bottom of exterior walls lost wall/shear crack,,,,,,,,,
368,,2039 DEVONSHIRE DR,,38.32632533,-122.3151255,2014-09-29,Green,2014-09-29, ,No comments,,,,,,,,,
369,,2407 ADRIAN ST,,38.31296047,-122.2936067,2014-09-24,Yellow,2014-09-24, ,damaged chimney has been removed - currently making repairs to cap,,,,,,,,,
370,,3254 ATHERTON CIR,,38.31084525,-122.3306569,2014-09-29,Green,2014-09-29, ,"Concerned about door, could  not smell any gas",,,,,,,,,
371,,1157 AUSTIN WAY,,38.3089377,-122.328552,2014-09-05,Yellow,2014-09-05, ,do not use fireplace stay aWy from areas around fireplace.,,,,,,,,,
372,,16 AVON AVE,,38.29451693,-122.3041844,2014-09-25,Green,2014-09-25, ,Resident said there had been H2O damage from broken pipe but it was repaired,,,,,,,,,
373,,1430 B ST,,38.30218851,-122.2956523,2014-09-24,Green,2014-09-24, ,No visible damage-home owners not home,,,,,,,,,
374,,1613 B ST,,38.30141865,-122.2971292,2014-09-29,Green,2014-09-29, ,No damage minor stucco cracks,,,,,,,,,
375,,1627 B ST,,38.30136267,-122.297885,2014-09-29,Yellow,2014-09-29, ,Fndn cracks-interior flr slopes fr. Door to kitchen-no restrictions-bowing @ bottom cripple sides fndn cracking,,,,,,,,,
376,,2460 BALFOUR CT,,38.32391035,-122.3269818,2014-09-25,Green,2014-09-25, ,"Spoke to owner on phone, inspected front of dwelling only no damage observed",,,,,,,,,
377,,2462 BALFOUR CT,,38.32402772,-122.3272413,2014-09-18,Yellow,2014-09-18, ,"interior gyp board cracks, chimney top 3' or so about to fall down, stay away from area around base of chimney out to about 15' - stay behind taped area",,,,,,,,,
378,,1048 BANBURY CT,,38.30490293,-122.3275286,2014-09-05,Yellow,2014-09-05, ,Cracked chimney,,,,,,,,,
379,,5 FOREST LN,,38.31273866,-122.3344261,2014-09-05,Yellow,2014-09-05, ,"severe ground slope or cracking, ok to occupy, structural geo eval recommended",,,,,,,,,
380,,260 FOSTER RD,,38.28654092,-122.3070222,2014-09-05,Yellow,2014-09-05, ,Crack found on lower portion of chimney,,,,,,,,,
381,,465 FOSTER RD,,38.2848679,-122.3070425,2014-09-05,Yellow,2014-09-05, ,Crack on chimney roof,,,,,,,,,
382,,690 FOSTER RD,,38.28329973,-122.3061748,2014-09-05,Yellow,2014-09-05, , ,,,,,,,,,
383,,690 FOSTER RD,,38.28329973,-122.3061748,2014-09-05,Yellow,2014-09-05, ,Chimney fractured,,,,,,,,,
384,,720 JACKSON ST,,38.30883362,-122.2861413,2014-09-05,Green,2014-09-05, ,no obvious damage,,,,,,,,,
385,,3065 JEFFERSON ST,,38.31682689,-122.2985031,2014-09-05,Green,2014-09-05, ,(Crocs Shoes),,,,,,,,,
386,,3069 JEFFERSON ST,,38.31698182,-122.298469,2014-09-05,Green,2014-09-05, ,(3 Hermanos Taqueria),,,,,,,,,
387,,623 COOMBS ST,,38.29589332,-122.2852057,2014-09-05,Yellow,2014-09-05, ,severe cracks in stucco/brickwalls supporting carport,,,,,,,,,
388,,623 COOMBS ST,,38.29589332,-122.2852057,2014-09-25,Green,2014-09-25, ,Damaged masonry wall near carport removed & new wood fence install,,,,,,,,,
389,,801 COOMBS ST,,38.29711002,-122.2860177,2014-09-05,Yellow,2014-09-05, ,Falling plaster,,,,,,,,,
390,,809 COOMBS ST,,38.29716085,-122.2862356,2014-09-05,Green,2014-09-05, ,OK to occupy,,,,,,,,,
391,,821 COOMBS ST,,38.29729975,-122.2861419,2014-09-05,Green,2014-09-05, ,minor cracking of front parapet,,,,,,,,,
392,,931 COOMBS ST,,38.29815974,-122.2868597,2014-09-05,Yellow,2014-09-05, ,"No Entry from Coombs, parking lot entry only",,,,,,,,,
393,,931 COOMBS ST,,38.29815974,-122.2868597,2014-09-05,Yellow,2014-09-05, ,Le Melange,,,,,,,,,
394,,933 COOMBS ST,,38.29823866,-122.2869116,2014-09-05,Yellow,2014-09-05, ,Le Melange,,,,,,,,,
395,,937 COOMBS ST,,38.2981491,-122.2869405,2014-09-05,Yellow,2014-09-05, , ,,,,,,,,,
396,,1153 EMILY AVE,,38.32047148,-122.2975399,2014-09-05,Yellow,2014-09-05, ,Loose and missing brick @ top part of chimney,,,,,,,,,
397,,1153 EMILY AVE,,38.32047148,-122.2975399,2014-09-05,Yellow,2014-09-05, ,Fallen brick on top of chimney,,,,,,,,,
398,,24 EMPEROR WAY,,38.33576657,-122.32794,2014-09-05,Yellow,2014-09-05, ,roof tiles falling & Compromised 30% at front entry,,,,,,,,,
399,,3088 ENCANTO DR,,38.33954969,-122.3188549,2014-09-23,Yellow,2014-09-23, ,Previously yellow tagged 9/1/14. Dan Plunkett chimney separated from house,,,,,,,,,
400,,3109 ENCANTO DR,,38.34022835,-122.3200789,2014-09-05,Yellow,2014-09-05, ,cracked chimney,,,,,,,,,
401,,3116 ENCANTO DR,,38.34060521,-122.3197085,2014-09-05,Yellow,2014-09-05, ,chimney,,,,,,,,,
402,,10 ENTERPRISE CT,,38.25984494,-122.2762311,2014-09-05,Green,2014-09-05, , ,,,,,,,,,
403,,20 ENTERPRISE CT,,38.26040597,-122.2757158,2014-09-05,Green,2014-09-05, , ,,,,,,,,,
404,,25 ENTERPRISE CT,,38.26002848,-122.2749321,2014-09-05,Green,2014-09-05, , ,,,,,,,,,
405,," ,  ",,38.26002848,-122.2749321,2014-09-05,Green,2014-09-05, , ,,,,,,,,,
406,,50 ENTERPRISE CT,,38.26132682,-122.2738452,2014-09-05,Green,2014-09-05, , ,,,,,,,,,
407,,55 ENTERPRISE CT,,38.26088013,-122.2732986,2014-09-05,Green,2014-09-05, , ,,,,,,,,,
408,," ,  ",,38.26088013,-122.2732986,2014-09-05,Green,2014-09-05, , ,,,,,,,,,
409,,901 ENTERPRISE WAY,,38.25884298,-122.2736819,2014-09-05,Green,2014-09-05, , ,,,,,,,,,
410,,902 ENTERPRISE WAY,,38.25864295,-122.2726369,2014-09-05,Yellow,2014-09-05, ,Obtain engineer evaluation for cracks in concrete wall panels,,,,,,,,,
411,,902 ENTERPRISE WAY,,38.25864295,-122.2726369,2014-09-05,Green,2014-09-05, ,Suites A thru I,,,,,,,,,
412,,902 ENTERPRISE WAY,,38.25864295,-122.2726369,2014-09-25,Green,2014-09-25, ,Re-tagged based of int. inspection see report on prior inspection SE #2927. No restrictions based on interior inspection of prev noted cracks in conc,,,,,,,,,
413,,904 ENTERPRISE WAY,,38.2592092,-122.2724311,2014-09-05,Green,2014-09-05, , ,,,,,,,,,
414,,906 ENTERPRISE WAY,,38.25917207,-122.2716531,2014-09-05,Green,2014-09-05, , ,,,,,,,,,
415,,1117 CAYETANO DR,,38.28800447,-122.266884,2014-10-10,Green,2014-10-10,downgraded from yellow,work completed,,,,,,,,,
416,,474 ADAMS ST,,38.29241301,-122.2896346,2014-09-18,Yellow,2014-09-18, ,along entire east side cracks observed at sill/plate/foundation connection - recommend repair,,,,,,,,,
417,," ,  ",,38.29241301,-122.2896346,2014-09-05,Yellow,2014-09-05, ,do not enter front door until chimney is removed,,,,,,,,,
418,,1831 ADRIAN ST,,38.30554116,-122.2898799,2014-09-05,Green,2014-09-05, ,structure good,,,,,,,,,
419,,1841 ADRIAN ST,,38.30566292,-122.2899769,2014-09-25,Green,2014-09-25, ,No comments,,,,,,,,,
420,,1850 ADRIAN ST,,38.30602622,-122.2895851,2014-10-03,Yellow,2014-10-03, ,Stair entrance porch has been pulled out & chimney has been cracked & displaced Interior,,,,,,,,,
421,,1851 ADRIAN ST,,38.30578032,-122.2900706,2014-09-25,Green,2014-09-25, ,Very minor cracks @ the door frame interior (owner doesn't want gree placard),,,,,,,,,
422,,1870 ADRIAN ST,,38.30626559,-122.289777,2014-09-08,Yellow,2014-09-08, ,"porch steps have 1"" gap to front door, superficial and inspect structure OK - restricted use of entry porch stairs",,,,,,,,,
423,,1891 ADRIAN ST,,38.30626265,-122.2904574,2014-09-05,Yellow,2014-09-05, ,CMU Wall Down,,,,,,,,,
424,,1924 ADRIAN ST,,38.3070631,-122.2904267,2014-10-03,Yellow,2014-10-03, ,Partial foundation moved off bearing. Shear cracks in interior walls. Other code (Fire) Violation found,,,,,,,,,
425,,1955 ADRIAN ST,,38.30707736,-122.2911186,2014-09-24,Green,2014-09-24, ,No ovservable hazard,,,,,,,,,
426,,2028 ADRIAN ST,,38.30823399,-122.2913877,2014-09-05,Yellow,2014-09-05, ,Ront porch falling into front yard,,,,,,,,,
427,,2350 ADRIAN ST,,38.31174051,-122.2926183,2014-10-03,Green,2014-10-03, ,Minor cracks on dry walls & sidings,,,,,,,,,
428,,2360 ADRIAN ST,,38.31187207,-122.2926692,2014-09-08,Yellow,2014-09-08, ,fireplace leaning,,,,,,,,,
429,,2364 ADRIAN ST,,38.31201623,-122.2927353,2014-09-08,Yellow,2014-09-08, ,fireplace leaning - restrict use on side of house,,,,,,,,,
430,,2525 ADRIAN ST,,38.31344138,-122.293848,2014-09-05,Yellow,2014-09-05, ,Chimney  down,,,,,,,,,
431,,960 CAYMUS ST,,38.30279419,-122.2868197,2014-09-05,Yellow,2014-09-05, ,General cracking along bottom of exterior walls lost wall/shear crack,,,,,,,,,
432,,960 CAYMUS ST,,38.30279419,-122.2868197,2014-09-05,Yellow,2014-09-05, ,Foundation cracked. Needs a structural engineer to perform a site inspection per Dan K.,,,,,,,,,
433,,1002 CAYMUS ST,,38.30203331,-122.2880583,2014-09-05,Yellow,2014-09-05, ,cracks,,,,,,,,,
434,,1006 CAYMUS ST,,38.30201402,-122.2880991,2014-09-05,Yellow,2014-09-05, ,cracks,,,,,,,,,
435,,1010 CAYMUS ST,,38.30200121,-122.2881271,2014-09-05,Yellow,2014-09-05, ,cracks,,,,,,,,,
436,,1014 CAYMUS ST,,38.30198352,-122.2881636,2014-09-05,Yellow,2014-09-05, ,cracks,,,,,,,,,
437,,1104 CLARK ST,,38.3117477,-122.2711047,2014-09-05,Green,2014-09-05, ,structure good,,,,,,,,,
438,,1106 CLARK ST,,38.31133375,-122.27106,2014-09-05,Green,2014-09-05, ,structure good,,,,,,,,,
439,,1121 CLARK ST,,38.31082755,-122.2718037,2014-09-05,Green,2014-09-05, ,structure good,,,,,,,,,
440,,1300 CLAY ST,,38.29880939,-122.2888093,2014-09-05,Red,2014-09-05, ,Parking Lot only (AT&T),,,,,,,,,
441,,1340 CLAY ST,,38.29871042,-122.2892682,2014-09-05,Yellow,2014-09-05, ,Water Palace; chimney,,,,,,,,,
442,,1584 CLAY ST,,38.29816372,-122.2907105,2014-09-05,Yellow,2014-09-05, ,broken front window,,,,,,,,,
443,,1620 CLAY ST,,38.29838831,-122.2918919,2014-09-05,Yellow,2014-09-05, ,Safeway - beam collapsed,,,,,,,,,
444,,1910 CLAY ST,,38.29852978,-122.2943465,2014-09-24,Green,2014-09-24, , ,,,,,,,,,
445,,1930 CLAY ST,,38.29859488,-122.2948402,2014-09-24,Green,2014-09-24, ,Minor plaster damage-already repaired,,,,,,,,,
446,,2212 CLAY ST,,38.29905859,-122.2970779,2014-09-24,Green,2014-09-24, ,(Apt. Unit) Significatn amount of interior cracking @ GYP. BD. Needs remedial repair work,,,,,,,,,
447,,2184 DEVONSHIRE DR,,38.32540267,-122.3184516,2014-09-17,Green,2014-09-17, , ,,,,,,,,,
448,,2184 DEVONSHIRE DR,,38.32540267,-122.3184516,2014-09-29,Green,2014-09-29, ,No comments,,,,,,,,,
449,,51 DE WITT AVE,,38.29628411,-122.311995,2014-09-05,Yellow,2014-09-05, ,Damaged concreat stem wall  floor has dropped above footing,,,,,,,,,
450,,3648 DIABLO ST,,38.32658682,-122.3085857,2014-09-05,Yellow,2014-09-05, , ,,,,,,,,,
451,,3873 DIABLO ST,,38.33143987,-122.3105688,2014-09-23,Yellow,2014-09-23, ,"Chimney cracked,viewed inside, chimney to be stabilized by a previously installed, recommend strutural engineer to be consulted for repairs",,,,,,,,,
452,,3873 DIABLO ST,,38.33143987,-122.3105688,2014-09-24,Green,2014-09-24, ,Structure good,,,,,,,,,
453,,3917 DIABLO ST,,38.3319308,-122.3107027,2014-09-05,Yellow,2014-09-05, ,chimney failure - stay clear until damage is removed,,,,,,,,,
454,,5 DICKERSON LN,,38.32406708,-122.3305291,2014-09-23,Yellow,2014-09-23, ,"crack 1/4"" wide in slab near center bathroom aprox 4'-6' long - check slab",,,,,,,,,
455,,14 DICKERSON LN,,38.32458286,-122.3303599,2014-09-29,Green,2014-09-29, ,No comments,,,,,,,,,
456,,1225 DIVISION ST,,38.2948556,-122.2850361,2014-09-11,Yellow,2014-09-11, ,avoid areas with loose plaster - OK to occ,,,,,,,,,
457,,138 DODGE CT,,38.30950146,-122.3426318,2014-09-05,Yellow,2014-09-05, ,"fault line through garage, cracks in chimney",,,,,,,,,
458,,141 DODGE CT,,38.30905197,-122.3426358,2014-09-05,Red,2014-09-05,downgraded to yellow,Foundation shift,,,,,,,,,
459,,141 DODGE CT,,38.30905197,-122.3426358,2014-09-05,Yellow,2014-09-05,downgraded from red,"leter rcvd from struc enge Dave Juday - PO can move back in, garage wall to be replaced ASAP, OK to demo fireplace",,,,,,,,,
460,,3019 DONNA DR,,38.31230991,-122.3205373,2014-09-05,Green,2014-09-05, ,no apparent structural damage - no placard,,,,,,,,,
461,,471 COFFIELD AVE,,38.30355845,-122.3044313,2014-09-05,Yellow,2014-09-05, ,"chimney on side of home broken off at roof, damaged roofing in area below, damaged and displaced roof tile in front",,,,,,,,,
462,,3000 DONNA DR,,38.31192989,-122.3196821,2014-09-05,Yellow,2014-09-05, ,chimney separated from struc - residence OK to occupy,,,,,,,,,
463,,1522 F ST,,38.30523104,-122.2972796,2014-09-05,Yellow,2014-09-05, ,Electrical,,,,,,,,,
464,,1531 F ST,,38.30481756,-122.2973123,2014-09-05,Green,2014-09-05, ,chimney fell into yard,,,,,,,,,
465,,1600 F ST,,38.30515851,-122.2977951,2014-09-24,Green,2014-09-24, ,Crack in walls- Inspected,,,,,,,,,
466,,1603 F ST,,38.30472053,-122.2978759,2014-09-05,Yellow,2014-09-05, ,damage to front porch support posts. Brick posts are cracked and leaning. One post is down.,,,,,,,,,
467,,1604 F ST,,38.30511774,-122.2982194,2014-09-05,Yellow,2014-09-05, ,remove loose chimney pipe from roof,,,,,,,,,
468,,1606 F ST,,38.3050823,-122.2984135,2014-09-16,Yellow,2014-09-16, ,"chimney may collapse during aftershocks, repair dry rot at chimney-roof intersection, provide chimney roof, chimney floor strapping",,,,,,,,,
469,,1607 F ST,,38.30460177,-122.2982762,2014-09-05,Red,2014-09-05, ,entire building has racked,,,,,,,,,
470,,1686 F ST,,38.30488237,-122.2991566,2014-09-24,Green,2014-09-24, ,Inspected- Green tag,,,,,,,,,
471,,1704 F ST,,38.30469103,-122.3000787,2014-09-05,Yellow,2014-09-05, ,Front porch separated from main structure/chimney down,,,,,,,,,
472,,1704 F ST,,38.30469103,-122.3000787,2014-09-11,Yellow,2014-09-11, ,chimney collaps above roofline - broken portion has been removed - structural review recom,,,,,,,,,
473,,103 ACACIA AVE,,38.31380169,-122.2734705,2014-09-05,Yellow,2014-09-05, ,fireplace cracking and damaged with missing brick,,,,,,,,,
474,,444 ADAMS ST,,38.29192686,-122.2896328,2014-09-25,Yellow,2014-09-25, ,Entry for retro of contents only. Required structural design and strengthing,,,,,,,,,
475,,444 ADAMS ST,,38.29192686,-122.2896328,2014-09-25,Green,2014-09-25, ,No comments,,,,,,,,,
476,,469 ADAMS ST,,38.29229104,-122.2900484,2014-09-05,Yellow,2014-09-05, ,chimney,,,,,,,,,
477,,3019 DONNA DR,,38.31230991,-122.3205373,2014-09-29,Green,2014-09-29, ,No comments,,,,,,,,,
478,,1704 F ST,,38.30469103,-122.3000787,2014-09-29,Yellow,2014-09-29, ,Chimney brick removed. OK to occupy,,,,,,,,,
479,,1709 F ST,,38.30427631,-122.3003667,2014-09-05,Red,2014-09-05, ,Collapsed structure,,,,,,,,,
480,,524 EVEN ST,,38.29362338,-122.2883583,2014-10-02,Green,2014-10-03,downgraded from yellow,no significant struc damaged - overturned yellow tag of 9/24,,,,,,,,,
481,,528 EVEN ST,,38.29360795,-122.2883023,2014-09-25,Green,2014-09-25, ,No issue (Apartment),,,,,,,,,
482,,528 EVEN ST,,38.29360795,-122.2883023,2014-10-02,Green,2014-10-03,downgraded from yellow,no significant struc damaged - overturned yellow tag of 9/24,,,,,,,,,
483,,532 EVEN ST,,38.29359771,-122.2882512,2014-09-25,Yellow,2014-10-02,downgraded to green,"Ext. pre-cast cone, stairwys treads-spalling @ weld connection plates, need repair replacement to restore code required. Load carrying ability",,,,,,,,,
484,,532 EVEN ST,,38.29359771,-122.2882512,2014-09-25,Green,2014-09-25, ,No issue (Apartment),,,,,,,,,
485,,532 EVEN ST,,38.29359771,-122.2882512,2014-10-02,Green,2014-10-03,downgraded from yellow,no significant struc damaged - overturned yellow tag of 9/24,,,,,,,,,
486,,606 EVEN ST,,38.29445874,-122.2884482,2014-10-02,Green,2014-10-02, ,"Resident (rude) would not allow interior inspection. Conducted exterior inspection, minor cracks (face) outside walls. Interior not inspected",,,,,,,,,
487,,635 EVEN ST,,38.29495027,-122.2887169,2014-09-05,Yellow,2014-09-05, ,chimney,,,,,,,,,
488,,3660 EVERGREEN CT,,38.32769782,-122.3048008,2014-09-05,Yellow,2014-09-05, ,stay clear of chimney area,,,,,,,,,
489,,1408 F ST,,38.30548542,-122.2961376,2014-09-05,Yellow,2014-09-05, ,"House Shifted, damage to cripple walls",,,,,,,,,
490,,1423 F ST,,38.30501418,-122.2963361,2014-09-05,Yellow,2014-09-05, ,"Loose bricks, damage to chimney",,,,,,,,,
491,,1424 F ST,,38.3054272,-122.2964597,2014-09-05,Yellow,2014-09-05, ,Damage to chimney,,,,,,,,,
492,,1879 BROWN ST,,38.30521006,-122.2920346,2014-09-25,Green,2014-09-25, ,"Front L handrail slightly loose, minor stucco cracking @ base just L of front entry",,,,,,,,,
493,,1881 BROWN ST,,38.30528343,-122.2923051,2014-09-05,Yellow,2014-09-05, ,do not use fireplace until chimney is repaired,,,,,,,,,
494,,1905 BROWN ST,,38.30561953,-122.2924028,2014-09-05,Yellow,2014-09-05, ,chimney shifted,,,,,,,,,
495,,1906 BROWN ST,,38.3059052,-122.2918341,2014-09-05,Yellow,2014-09-05, ,"chimney brick has visible twisting/cracking - fall hazard, do not use driveway",,,,,,,,,
496,,2005 BROWN ST,,38.30687604,-122.293293,2014-09-05,Yellow,2014-09-05, ,Fireplace Chimney to be removed,,,,,,,,,
497,,2119 BROWN ST,,38.30782429,-122.2941405,2014-09-05,Yellow,2014-09-05, ,block wall falling down,,,,,,,,,
498,,2272 BROWN ST,,38.30989614,-122.2944877,2014-09-23,Yellow,2014-09-23, ,"Upper step on watwer has come off, lower strap loose, TPR valve not plumbed to outside of apartment. Needs to be anchored. Fr. Door out of align.",,,,,,,,,
499,,2274 BROWN ST,,38.31005562,-122.2945433,2014-09-16,Yellow,2014-09-16, ,"occupancy ok, minor damage front right post of carport - repairs needed",,,,,,,,,
500,,2280 BROWN ST,,38.31021541,-122.2946706,2014-09-05,Green,2014-09-05, ,(Chardonnay Apartments),,,,,,,,,
501,,2634 BROWN ST,,38.31480047,-122.2959592,2014-09-05,Yellow,2014-09-05, ,Chimney bricks loose and leaning,,,,,,,,,
502,,4080 BROWNS VALLEY RD,,38.31097083,-122.3405897,2014-09-24,Green,2014-09-24, ,"Stucco cracking @ entry court, front exterior cracks & left bottom corner of house.",,,,,,,,,
503,,4328 CHABLIS DR,,38.32980189,-122.3341236,2014-09-17,Green,2014-09-17, ,gas insert moved out - PG&E called and checked for damage/leaks none found,,,,,,,,,
504,,242 BUTTERCUP CT,,38.29108331,-122.2663229,2014-09-29,Green,2014-09-29, ,Exterior of dwelling has been inspected & deemed safe to occupy,,,,,,,,,
505,,3790 BEL AIRE PLZ,,38.29108331,-122.2663229,2014-09-05,Green,2014-09-05, ,(Bel Aire Plaza) damage limited to roofing and contents,,,,,,,,,
506,,1453 CALISTOGA AVE,,38.29958549,-122.2919348,2014-09-25,Yellow,2014-09-25, ,Occupant are not to use garage or screened porch above garage. Occupants may enter to remove items,,,,,,,,,
507,,1721 ELM ST,,38.28962258,-122.2927388,2014-09-05,Yellow,2014-09-05, ,Collapsed Chimney,,,,,,,,,
508,,1721 ELM ST,,38.28962258,-122.2927388,2014-09-05,Yellow,2014-09-05, ,chimney,,,,,,,,,
509,,1735 ELM ST,,38.28953182,-122.2931923,2014-09-08,Yellow,2014-09-08, ,chimney cracked at left side of house,,,,,,,,,
510,,1758 ELM ST,,38.29004302,-122.2930998,2014-09-05,Yellow,2014-09-05, ,Collapsed Chimney,,,,,,,,,
511,,1796 ELM ST,,38.2899857,-122.2940285,2014-09-05,Yellow,2014-09-05, ,light well - cracks in chimney - does not appear to be fall hazard (Lutheran Church) - green tag removed,,,,,,,,,
512,,2911 FIRST ST,,38.3006963,-122.31178,2014-10-02,Green,2014-10-02, ,"Inspected exterior & interior, no visible damage",,,,,,,,,
513,,2930 FIRST ST,,38.30126698,-122.3116645,2014-09-05,Yellow,2014-09-05, ,brick veneer cracked and bowing outward - fall hazard to residents on front porch,,,,,,,,,
514,,2982 FIRST ST,,38.30170378,-122.3135761,2014-09-05,Yellow,2014-09-05, ,"Gas smell, light, by meter. Shut off gas. Building leaning, chimney cracked, Verify structural retrofit in basement was permitted",,,,,,,,,
515,,2985 FIRST ST,,38.30121901,-122.3139853,2014-09-25,Green,2014-09-25, ,No comments,,,,,,,,,
516,,2437 FLAGSTONE DR,,38.33191721,-122.3337681,2014-09-24,Green,2014-09-24, ,No comments,,,,,,,,,
517,,1723 LINCOLN AVE,,38.30729061,-122.300971,2014-09-05,Yellow,2014-09-05, ,brick facia separated from building structure and may fall to the north,,,,,,,,,
518,,1725 LINCOLN AVE,,38.30725803,-122.3009956,2014-09-05,Yellow,2014-09-05, ,brick facia separated from building structure and may fall to the north,,,,,,,,,
519,,1727 LINCOLN AVE,,38.30719954,-122.3009762,2014-09-05,Yellow,2014-09-05, ,brick facia separated from building structure and may fall to the north,,,,,,,,,
520,,1729 LINCOLN AVE,,38.30706036,-122.3009435,2014-09-05,Yellow,2014-09-05, ,brick facia separated from building structure and may fall to the north,,,,,,,,,
521,,1733 LINCOLN AVE,,38.30711859,-122.3010691,2014-09-05,Yellow,2014-09-05, ,apartment Complex - CMU wall separated from column,,,,,,,,,
522,,1741 LINCOLN AVE 22,,38.3066298,-122.3012577,2014-09-11,Green,2014-09-11, ,no restrictions,,,,,,,,,
523,,1741 LINCOLN AVE,,38.3066298,-122.3012577,2014-09-16,Green,2014-09-16, ,"tenant reports interior cracking, there is no visible exterior damage noted, no further action needed",,,,,,,,,
524,,800 LINCOLN AVE,,38.30973321,-122.2893566,2014-09-08,Green,2014-09-08, ,green - no placard posted,,,,,,,,,
525,,802 LINCOLN AVE,,38.3099146,-122.2894654,2014-09-08,Green,2014-09-08, ,green - no placard posted,,,,,,,,,
526,,804 LINCOLN AVE,,38.30989267,-122.2896378,2014-09-08,Green,2014-09-08, ,green - no placard posted,,,,,,,,,
527,,806 LINCOLN AVE,,38.30991933,-122.2895623,2014-09-08,Green,2014-09-08, ,green - no placard posted,,,,,,,,,
528,,808 LINCOLN AVE,,38.30995138,-122.2894482,2014-09-08,Green,2014-09-08, ,green - no placard posted,,,,,,,,,
529,,810 LINCOLN AVE,,38.30984962,-122.2893823,2014-09-08,Green,2014-09-08, ,green - no placard posted,,,,,,,,,
530,,812 LINCOLN AVE,,38.30982185,-122.2893738,2014-09-08,Green,2014-09-08, ,green - no placard posted,,,,,,,,,
531,,814 LINCOLN AVE,,38.30979803,-122.2893737,2014-09-08,Green,2014-09-08, ,green - no placard posted,,,,,,,,,
532,,908 ENTERPRISE WAY,,38.25922793,-122.2731131,2014-09-05,Green,2014-09-05, , ,,,,,,,,,
533,,3 EDITH CT,,38.3146071,-122.310468,2014-09-23,Yellow,2014-09-23, ,"Top portion of chimney has brocken above roof line, avoid, avoid area around chimney at side yard",,,,,,,,,
534,,5 EDITH CT,,38.31438575,-122.3103492,2014-09-23,Yellow,2014-09-23, ,"crack in ceiling (1/8"" - 1/4"") near head beam connection - check ceiling joise to beam connections",,,,,,,,,
535,,1171 EGGLESTON ST,,38.30223992,-122.291995,2014-09-29,Yellow,2014-09-29, ,"Shifted off base 5"". W side porch posts need re-alignment & securing @ base",,,,,,,,,
536,,1145 EGGLESTON ST,,38.30229311,-122.2915777,2014-09-05,Red,2014-09-05, ,unsafe,,,,,,,,,
537,,930 FRANKLIN ST,,38.29742562,-122.2879651,2014-09-05,Green,2014-09-05, ,structure good,,,,,,,,,
538,,930 FRANKLIN ST,,38.29742562,-122.2879651,2014-09-05,Green,2014-09-05, , ,,,,,,,,,
539,,935 FRANKLIN ST,,38.29742016,-122.2886742,2014-09-05,Red,2014-09-05,downgraded to green,Structural,,,,,,,,,
540,,935 FRANKLIN ST,,38.29742016,-122.2886742,2014-09-05,Green,2014-09-05,downgraded from yellow,Structural,,,,,,,,,
541,,224 FREDERICK DR,,38.28963689,-122.2961753,2014-09-25,Green,2014-09-25, ,No comments,,,,,,,,,
542,,257 FREDERICK DR,,38.29062349,-122.2963907,2014-09-05,Yellow,2014-09-05, ,f/p unstable,,,,,,,,,
543,,257 FREDERICK DR,,38.29062349,-122.2963907,2014-09-23,Yellow,2014-09-23, ,"Chimney pull away from structure,contractor removed chimney , back ASAP to brace the wall & transfer load to wall",,,,,,,,,
544,,333 FREEWAY DR,,38.29199459,-122.3027,2014-09-25,Green,2014-09-25, ,No noticable cracks observed from exterior,,,,,,,,,
545,,335 FREEWAY DR,,38.29200962,-122.3028659,2014-09-25,Green,2014-09-25, ,No noticable cracks observed from exterior,,,,,,,,,
546,,355 FREEWAY DR,,38.29259607,-122.3028069,2014-09-25,Green,2014-09-25, ,No noticable cracks observed from exterior,,,,,,,,,
547,," ,  ",,38.29259607,-122.3028069,2014-09-25,Green,2014-09-25, ,"Minor cracks @ openings, Inspected exterior/Vacant apartment",,,,,,,,,
548,,2532 GROVE AVE,,38.3077046,-122.3169336,2014-09-25,Green,2014-09-25, ,"Green tag, no comments",,,,,,,,,
549,,1140 H ST,,38.30752559,-122.2945071,2014-09-05,Yellow,2014-09-05, ,Crack from ground to rear west window - foundation slippage,,,,,,,,,
550,,1341 H ST,,38.30676559,-122.2961324,2014-09-05,Yellow,2014-09-05, ,shift of foundation - front porch columns,,,,,,,,,
551,,1532 H ST,,38.30679309,-122.2978784,2014-09-05,Yellow,2014-09-05, ,"Porch separated from building structure 1.5"" gap from porch to structure",,,,,,,,,
552,,65 HACIENDA DR,,38.34106904,-122.3305868,2014-09-25,Green,2014-09-25, ,GREEN TAG (Mobile Home) new support blocking installed per HCD standards permit 28-0048-MP issued 9/15/14-repair work in progress,,,,,,,,,
553,,69 HACIENDA DR,,38.34167616,-122.3308528,2014-09-25,Green,2014-09-25, ,GREEN TAG (Mobile Home) steps separated partially from deck-steps appear to be intact H2O problem resolved,,,,,,,,,
554,,74 HAHNEMANN LN,,38.33757261,-122.3278596,2014-09-25,Green,2014-09-25, ,No obvious EQ damage,,,,,,,,,
555,,7 HALL CT,,38.30402036,-122.3094561,2014-09-05,Yellow,2014-09-05, ,corner brick veneer at garage cracked through to main structure,,,,,,,,,
556,,3136 HAMILTON ST,,38.32971751,-122.3068327,2014-09-05,Yellow,2014-09-05, ,chimney failure - stay clear until damage is removed,,,,,,,,,
557,,3971 HAMPTON WAY,,38.33458954,-122.3172763,2014-09-25,Green,2014-09-25, ,"No damage, no cracks",,,,,,,,,
558,,3983 HAMPTON WAY,,38.33455938,-122.3178868,2014-09-24,Green,2014-09-24, ,Minor drywall crack @ kitchen,,,,,,,,,
559,,3987 HAMPTON WAY,,38.33471464,-122.3179428,2014-09-24,Green,2014-09-24, ,Structure good,,,,,,,,,
560,,3990 HAMPTON WAY,,38.33490776,-122.3176158,2014-09-17,Green,2014-09-17, , ,,,,,,,,,
561,,2158 HARDING AVE,,38.28101166,-122.2712618,2014-09-05,Yellow,2014-09-05, ,chimney collapsed roof at front entrance,,,,,,,,,
562,,2161 HARDING AVE,,38.28086565,-122.272593,2014-09-25,Green,2014-09-25, ,Minor superficial cracks no structural,,,,,,,,,
563,,2161 HARDING AVE,,38.28086565,-122.272593,2014-09-25,Green,2014-09-25, ,Minor superficial cracks no structural,,,,,,,,,
564,,1527 BEHRENS ST,,38.30178042,-122.2914985,2014-09-25,Green,2014-09-25, ,"Sill pls. are bolted down-one side of stairs to fr entry has lg screws pulled away from structural members. Re-attach to structure, stay on L side stairs",,,,,,,,,
565,,1552 BEHRENS ST,,38.30198639,-122.2908697,2014-09-25,Green,2014-09-25, ,"Drywall cracks in interior, no other damage",,,,,,,,,
566,,3682 BEL AIRE PLZ,,38.32333524,-122.306389,2014-09-05,Green,2014-09-05, ,no structural damage,,,,,,,,,
567,,3600 BEL AIRE PLZ,,38.32220768,-122.30505,2014-09-05,Green,2014-09-05, ,(Bel Aire Plaza) damage limited to roofing and contents,,,,,,,,,
568,,3614 BEL AIRE PLZ,,38.3224857,-122.3052468,2014-09-05,Green,2014-09-05, ,(Bel Aire Plaza) damage limited to roofing and contents,,,,,,,,,
569,,3614 BEL AIRE PLZ,,38.3224857,-122.3052468,2014-09-05,Green,2014-09-05, ,(Bel Aire Plaza) damage limited to roofing and contents,,,,,,,,,
570,,3626 BEL AIRE PLZ,,38.32234595,-122.3055903,2014-09-05,Green,2014-09-05, ,(Bel Aire Plaza) damage limited to roofing and contents,,,,,,,,,
571,,3628 BEL AIRE PLZ,,38.32237872,-122.3056287,2014-09-05,Green,2014-09-05, ,(Bel Aire Plaza) damage limited to roofing and contents,,,,,,,,,
572,,3630 BEL AIRE PLZ,,38.32242985,-122.3057111,2014-09-05,Green,2014-09-05, ,(Bel Aire Plaza) damage limited to roofing and contents,,,,,,,,,
573,,3632 BEL AIRE PLZ,,38.32290448,-122.3060542,2014-09-05,Green,2014-09-05, ,(Bel Aire Plaza) damage limited to roofing and contents,,,,,,,,,
574,,3634 BEL AIRE PLZ,,38.32250167,-122.3057578,2014-09-05,Green,2014-09-05, ,(Bel Aire Plaza) damage limited to roofing and contents,,,,,,,,,
575,,3638 BEL AIRE PLZ,,38.32284347,-122.3059991,2014-09-05,Green,2014-09-05, ,(Bel Aire Plaza) damage limited to roofing and contents,,,,,,,,,
576,,3642 BEL AIRE PLZ,,38.32259225,-122.305802,2014-09-05,Green,2014-09-05, ,(Bel Aire Plaza) damage limited to roofing and contents,,,,,,,,,
577,,3646 BEL AIRE PLZ,,38.32263856,-122.3058403,2014-09-05,Green,2014-09-05, ,(Bel Aire Plaza) damage limited to roofing and contents,,,,,,,,,
578,,254 BUTTERCUP CT,,38.29084747,-122.26601,2014-09-25,Green,2014-09-25, ,Interior cracks above doors and windows. Cracks along taped joints,,,,,,,,,
579,,256 BUTTERCUP CT,,38.29061878,-122.2659697,2014-09-05,Yellow,2014-09-05, ,"roof tiles, falling hazard",,,,,,,,,
580,,258 BUTTERCUP CT,,38.29041474,-122.2660479,2014-09-25,Green,2014-09-25, ,Cracks above front door and above the garage,,,,,,,,,
581,,258 BUTTERCUP CT,,38.29041474,-122.2660479,2014-09-29,Green,2014-09-29, ,Stucco cracking Minor craks done door & garage,,,,,,,,,
582,,2492 CABERNET CT,,38.32493855,-122.3298575,2014-09-24,Green,2014-09-24, ,"garage 36"" door frame - minor drywall crack in interior garage wall above side door - side door offset 1/4"" on interior side",,,,,,,,,
583,,2492 CABERNET CT,,38.32493855,-122.3298575,2014-09-25,Green,2014-09-25, ,Please call 258-7829 on questions about chimney to be inspected,,,,,,,,,
584,,2494 CABERNET CT,,38.32478221,-122.3295844,2014-09-25,Green,2014-09-25, ,Viewed crawl space/plumb,,,,,,,,,
585,,2456 CABERNET ST,,38.3276801,-122.3287834,2014-09-17,Green,2014-09-17, ,"repaired chimney with metal straps, removed top of chimney above roof",,,,,,,,,
586,,625 CABOT CT,,38.28029027,-122.2889672,2014-09-25,Green,2014-09-25, ,"Doors sticking, minor cracking in tile, drywall, openings, pool decking settlement issues",,,,,,,,,
587,,2 CALAVERAS CT,,38.28628754,-122.2996856,2014-10-02,Green,2014-10-02, ,Minor drywall cracks,,,,,,,,,
588,,700 CALIFORNIA BLVD,,38.29581629,-122.3001927,2014-09-05,Yellow,2014-09-05, ,"structural damage, cracking",,,,,,,,,
589,,2407 CALIFORNIA BLVD,,38.30767082,-122.3029367,2014-09-05,Green,2014-09-05, ,(Aquatic World),,,,,,,,,
590,,3131 CALIFORNIA BLVD,,38.31667712,-122.3056466,2014-09-05,Green,2014-09-05, ,structure good,,,,,,,,,
591,,3131 CALIFORNIA BLVD,,38.31667712,-122.3056466,2014-09-05,Green,2014-09-05, , ,,,,,,,,,
592,,3149 CALIFORNIA BLVD,,38.31703895,-122.3055951,2014-09-05,Green,2014-09-05, ,structure good,,,,,,,,,
593,,3175 CALIFORNIA BLVD,,38.31759043,-122.3065998,2014-09-05,Green,2014-09-05, ,structure good,,,,,,,,,
594,,3229 CALIFORNIA BLVD,,38.31834484,-122.3064555,2014-09-05,Green,2014-09-05, , ,,,,,,,,,
595,,3800 BEL AIRE PLZ,,38.3239752,-122.3069577,2014-09-05,Green,2014-09-05, ,(Bel Aire Plaza) damage limited to roofing and contents,,,,,,,,,
596,,3816 BEL AIRE PLZ,,38.32393558,-122.3070179,2014-09-05,Green,2014-09-05, ,(Bel Aire Plaza) damage limited to roofing and contents,,,,,,,,,
597,,3824 BEL AIRE PLZ,,38.32387943,-122.3071204,2014-09-05,Green,2014-09-05, ,(Bel Aire Plaza) damage limited to roofing and contents,,,,,,,,,
598,,3850 BEL AIRE PLZ,,38.32387943,-122.3071204,2014-09-05,Green,2014-09-05, ,(Bel Aire Plaza) damage limited to roofing and contents,,,,,,,,,
599,,3900 BEL AIRE PLZ,,38.32380447,-122.3073973,2014-09-05,Green,2014-09-05, ,(Bel Aire Plaza) damage limited to roofing and contents,,,,,,,,,
600,,3910 BEL AIRE PLZ,,38.32271505,-122.3057373,2014-09-05,Green,2014-09-05, ,(Bel Aire Plaza) damage limited to roofing and contents,,,,,,,,,
601,,3916 BEL AIRE PLZ,,38.32319389,-122.3095142,2014-09-05,Yellow,2014-09-05, ,"east CMU wall / chimney/ racking, collapse",,,,,,,,,
602,,3916 BEL AIRE PLZ,,38.32319389,-122.3095142,2014-09-05,Green,2014-09-05, ,(Bel Aire Plaza) damage limited to roofing and contents,,,,,,,,,
603,,3922 BEL AIRE PLZ,,38.32389611,-122.3082718,2014-09-05,Green,2014-09-05, ,(Bel Aire Plaza) damage limited to roofing and contents,,,,,,,,,
604,,3934 BEL AIRE PLZ,,38.32376209,-122.3085751,2014-09-05,Green,2014-09-05, ,(Bel Aire Plaza) damage limited to roofing and contents,,,,,,,,,
605,,3940 BEL AIRE PLZ,,38.3238597,-122.3083697,2014-09-05,Green,2014-09-05, ,(Bel Aire Plaza) damage limited to roofing and contents,,,,,,,,,
606,,3950 BEL AIRE PLZ,,38.32230901,-122.306579,2014-09-05,Green,2014-09-05, ,(Bel Aire Plaza) damage limited to roofing and contents,,,,,,,,,
607,,3958 BEL AIRE PLZ,,38.32380792,-122.3087066,2014-09-05,Green,2014-09-05, ,(Bel Aire Plaza) damage limited to roofing and contents,,,,,,,,,
608,,3962 BEL AIRE PLZ,,38.32379879,-122.308914,2014-09-05,Green,2014-09-05, ,(Bel Aire Plaza) damage limited to roofing and contents,,,,,,,,,
609,,4034 ESCUELA DR,,38.34104793,-122.3222138,2014-09-05,Yellow,2014-09-05, ,chimney cracked through a narrow section above rooms,,,,,,,,,
610,,3980 BEL AIRE PLZ,,38.32330355,-122.3096493,2014-09-05,Green,2014-09-05, ,(Bel Aire Plaza) damage limited to roofing and contents,,,,,,,,,
611,,1005 COOMBS ST,,38.29855508,-122.2871528,2014-09-05,Red,2014-09-05,downgraded to yellow,(Lewis Law),,,,,,,,,
612,,910 ENTERPRISE WAY,,38.2598028,-122.2720515,2014-09-05,Green,2014-09-05, , ,,,,,,,,,
613,,912 ENTERPRISE WAY,,38.25970426,-122.2735881,2014-09-05,Green,2014-09-05, , ,,,,,,,,,
614,,2529 BUTTE ST,,38.30937203,-122.3050021,2014-09-25,Yellow,2014-09-25, ,"Fndn sill plate, stucco cracking around base of structure primarily on S & W side. No restricting @ this time",,,,,,,,,
615,,1094 CAYETANO DR,,38.28820387,-122.2684989,2014-09-29,Green,2014-09-29, ,"Chimney cracks minor, exterior of dwelling has been inspected and deemed safe to occupy",,,,,,,,,
616,,1102 CLARK ST,,38.31176406,-122.2716777,2014-09-05,Green,2014-09-05, ,structure good,,,,,,,,,
617,,3411 DEERFIELD CT,,38.3088334,-122.3396552,2014-09-05,Yellow,2014-09-05, ,Numerous cracks throughout living room through kitchen to dining room area. Chimney collapsed and penetract clay roof,,,,,,,,,
618,,2379 EVA ST,,38.27915374,-122.2979357,2014-09-05,Yellow,2014-09-05, ,brick work inside was removed or fell,,,,,,,,,
619,,427 EVEN ST,,38.29299733,-122.2891555,2014-09-05,Yellow,2014-09-05, ,Damaged chimney- moderate damage,,,,,,,,,
620,,504 EVEN ST,,38.29367317,-122.2886121,2014-09-24,Green,2014-09-24, ,Apartments-Inspected,,,,,,,,,
621,,504 EVEN ST,,38.29367317,-122.2886121,2014-09-25,Green,2014-09-25, ,No issue (Apartment),,,,,,,,,
622,,504 EVEN ST,,38.29367317,-122.2886121,2014-10-02,Green,2014-10-02,downgraded from yellow,no significant struc damaged - overturned yellow tag of 9/24,,,,,,,,,
623,,3980 BEL AIRE PLZ,,38.32330355,-122.3096493,2014-09-05,Green,2014-09-05, ,"(Orchard Supply Hardware) minor ceiling tile damage, cracked slab running from front of store to rear",,,,,,,,,
624,,4000 BEL AIRE PLZ,,38.32261088,-122.3079537,2014-09-05,Red,2014-09-05, ,leaning tower over entry (Target),,,,,,,,,
625,,4000 BEL AIRE PLZ,,38.32261088,-122.3079537,2014-09-05,Green,2014-09-05, ,"issue by City - suggest yellow - damage to façade, tower - perimeter within fall zone (tower) (Target)",,,,,,,,,
626,,25 BELLEVUE AVE,,38.29590399,-122.30993,2014-09-23,Yellow,2014-09-23, ,House is OK evaluate for garage only. Lg cracks wall of garage only. Limited access to garage,,,,,,,,,
627,,31 BELLEVUE AVE,,38.2960337,-122.3100017,2014-09-23,Yellow,2014-09-23, ,Large cracks in masonry wall. Limited access to remove belongings,,,,,,,,,
628,,31 BELLEVUE AVE,,38.2960337,-122.3100017,2014-09-25,Green,2014-09-25, ,No comments,,,,,,,,,
629,,73 BELLEVUE AVE,,38.29694121,-122.310505,2014-09-24,Green,2014-09-24, ,novisible damage (exterior only) - no one home,,,,,,,,,
630,,3027 BROWNS VALLEY RD,,38.3017084,-122.3164924,2014-09-05,Red,2014-09-05, ,Carports collapsed - 1 of 9 carports left standing,,,,,,,,,
631,,3107 BROWNS VALLEY RD,,38.30283798,-122.319476,2014-09-05,Red,2014-09-05, ,slipped off foundations/jacks tie down system,,,,,,,,,
632,,3146 BROWNS VALLEY RD,,38.3047392,-122.3222642,2014-09-25,Green,2014-09-25, ,Contractor is repairing damages,,,,,,,,,
633,,3371 BROWNS VALLEY RD,,38.30495015,-122.3368371,2014-09-17,Yellow,2014-09-17, ,foundation cracking - chimney separated from structure - safe to occ,,,,,,,,,
634,,3398 BROWNS VALLEY RD,,38.3057369,-122.3371777,2014-09-17,Yellow,2014-09-17, ,severe foundation and wall damage,,,,,,,,,
635,,3411 BROWNS VALLEY RD,,38.30497242,-122.3372688,2014-09-05,Yellow,2014-09-05, ,Damage to fireplace and chimney,,,,,,,,,
636,,180 BRYAN AVE,,38.29706335,-122.313346,2014-10-02,Green,2014-10-02, ,Wall siding pulled out,,,,,,,,,
637,,181 BRYAN AVE,,38.29680533,-122.3132004,2014-09-17,Green,2014-09-17, ,SE should review foundation and stem wall,,,,,,,,,
638,,160 BRYAN AVE,,38.29721219,-122.3128983,2014-09-29,Green,2014-09-29, ,No comments,,,,,,,,,
639,,1600 BRYCE CT,,38.33406108,-122.3107912,2014-09-05,Yellow,2014-09-05, ,chimney,,,,,,,,,
640,,1484 CALISTOGA AVE,,38.30009523,-122.2922827,2014-09-25,Yellow,2014-09-25, ,Cripple wall leaning 3' owner had contractor stablize wall with 4x4 to ctr fndn. 3'to the W wall of struct. Needs to submit a a struct. Eng. Report to the Cof Napa,,,,,,,,,
641,,1328 CALISTOGA AVE,,38.29969406,-122.2895945,2014-09-25,Green,2014-09-25, ,"Green tag,Interior plaster cracking",,,,,,,,,
642,,1411 CALISTOGA AVE,,38.29948785,-122.2909711,2014-09-05,Yellow,2014-09-05, ,structural damage to the foundation,,,,,,,,,
643,," ,  ",,38.29948785,-122.2909711,2014-09-05,Yellow,2014-09-05, ,structural damage to the foundation,,,,,,,,,
644,,1415 CALISTOGA AVE,,38.29949501,-122.2910334,2014-09-05,Yellow,2014-09-05, ,structural damage to the foundation,,,,,,,,,
645,,1417 CALISTOGA AVE,,38.29950911,-122.2911184,2014-09-05,Yellow,2014-09-05, ,structural damage to the foundation,,,,,,,,,
646,,2163 CAMENSON ST,,38.33367519,-122.3254274,2014-09-17,Green,2014-09-17, ,roof tile; garage door area appears to be repaired,,,,,,,,,
647,,15 CAMILLA DR,,38.31230362,-122.339932,2014-09-05,Yellow,2014-09-05, , ,,,,,,,,,
648,,4438 CARDINAL CT,,38.3463143,-122.3150844,2014-09-05,Yellow,2014-09-05, ,chimney damage,,,,,,,,,
649,,2845 CARLOS ST,,38.31108344,-122.3181144,2014-09-12,Yellow,2014-09-12, ,floor center supports have moved off piers under house - must be reinstalled & secured,,,,,,,,,
650,,1488 CAROL DR,,38.31532122,-122.3124527,2014-09-25,Green,2014-09-25, ,Side fence masonry wall damaged & removed,,,,,,,,,
651,,1672 CAROL DR,,38.31903626,-122.3132525,2014-09-05,Green,2014-09-05, , ,,,,,,,,,
652,,1672 CAROL DR,,38.31903626,-122.3132525,2014-10-02,Green,2014-10-02, ,Minor cracks on stucco walls,,,,,,,,,
653,,1685 CAROL DR,,38.31957894,-122.313958,2014-10-02,Green,2014-10-02, ,"Minor crack on bricks of chimney, minor cracks on exterior walls",,,,,,,,,
654,,730 CAROLINA ST,,38.31176289,-122.2869149,2014-09-05,Yellow,2014-09-05, ,"Cracked chimney, occupants stay 25 ft. aWy from chimney",,,,,,,,,
655,,2454 CARRIAGE PL,,38.31701047,-122.2874808,2014-09-25,Green,2014-09-25, ,"Minor drywall cracking ""GREEN""",,,,,,,,,
656,,2388 BARRY ST,,38.28027015,-122.298292,2014-09-25,Green,2014-09-25, ,No damage or hazards noted from front yard,,,,,,,,,
657,," ,  ",,38.28027015,-122.298292,2014-09-05,Red,2014-10-07,downgraded to yellow,adjacent bldg red tagged - 1017-unit posted as URM structure,,,,,,,,,
658,," ,  ",,38.28027015,-122.298292,2014-10-07,Yellow,2014-10-07,downgraded from red,entry for repairs and retrieval of belongings only - adj bldgs red tagged - wraps around this bldg - no struc damage evident in this bldg,,,,,,,,,
659,," ,  ",,38.28027015,-122.298292,2014-09-05,Red,2014-10-07,downgraded to yellow,adjacent bldg red tagged - 1017-unit posted as URM structure,,,,,,,,,
660,," ,  ",,38.28027015,-122.298292,2014-10-07,Yellow,2014-10-07,downgraded from red,entry for repairs and retrieval of belongings only - adj bldgs red tagged - wraps around this bldg - no struc damage evident in this bldg,,,,,,,,,
661,,1015 COOMBS ST,,38.29851115,-122.2870985,2014-09-05,Red,2014-10-07,downgraded to yellow,adjacent bldg red tagged - 1017-unit posted as URM structure,,,,,,,,,
662,,1015 COOMBS ST,,38.29851115,-122.2870985,2014-09-05,Red,2014-10-07,downgraded to yellow,adjacent bldg red tagged - 1017-unit posted as URM structure,,,,,,,,,
663,,1015 COOMBS ST,,38.29851115,-122.2870985,2014-10-07,Yellow,2014-10-07,downgraded from red,entry for repairs and retrieval of belongings only - adj bldgs red tagged - wraps around this bldg - no struc damage evident in this bldg,,,,,,,,,
664,,1015 COOMBS ST,,38.29851115,-122.2870985,2014-09-05,Green,2014-09-05, ,structure good,,,,,,,,,
665,,1017 COOMBS ST,,38.29869338,-122.2872884,2014-09-05,Red,2014-10-07,downgraded to yellow,adjacent bldg red tagged - 1017-unit posted as URM structure,,,,,,,,,
666,,1017 COOMBS ST,,38.29869338,-122.2872884,2014-10-07,Yellow,2014-10-07,downgraded from red,entry for repairs and retrieval of belongings only - adj bldgs red tagged - wraps around this bldg - no struc damage evident in this bldg,,,,,,,,,
667,,1213 COOMBS ST,,38.29996721,-122.2884265,2014-09-05,Red,2014-09-17,downgraded to yellow,"foundation cripple wall leaning - building offset approx 3""",,,,,,,,,
668,,2273 EVA ST,,38.27866759,-122.2954565,2014-09-25,Green,2014-09-25, ,Need H2O heater straps,,,,,,,,,
669,,120 FRANKLIN ST,,38.28839091,-122.289123,2014-09-29,Yellow,2014-09-29, ,Family rm restricted-no use-fireplace compromised-cracks @ roofline (horizontal),,,,,,,,,
670,,2469 BUTTE ST,,38.30831618,-122.3046813,2014-09-05,Yellow,2014-09-05, ,"very slight leaning, racking cracks @ door frames, cracked chimney, blocks fallen",,,,,,,,,
671,,2461 CARRIAGE PL,,38.31655494,-122.2878181,2014-09-05,Yellow,2014-09-05, ,loose roofing shingles/tiles,,,,,,,,,
672,,2405 COLINA CT,,38.28410881,-122.3011715,2014-09-05,Yellow,2014-09-05, ,portion of roof at corner has collapsed exposing framing and brick - avoid walking or standing below damaged roof area,,,,,,,,,
673,,508 EVEN ST,,38.29366177,-122.2885691,2014-09-24,Green,2014-09-24, ,Apartments-Inspected,,,,,,,,,
674,,2214 CLAY ST,,38.29925223,-122.2972073,2014-09-17,Yellow,2014-09-17, ,"interior wall has moved 1/4"" at slab, soffit at kitchen has sagged; gas odor in SW bedroom",,,,,,,,,
675,,2214 CLAY ST,,38.29925223,-122.2972073,2014-09-23,Yellow,2014-09-23, ,"cracks on walls/bathrooms ceiling, floor movement - need struc eng",,,,,,,,,
676,,2215 CLAY ST,,38.29853195,-122.2975405,2014-09-24,Green,2014-09-24, , ,,,,,,,,,
677,,2400 CLAY ST,,38.29913032,-122.2998703,2014-09-05,Red,2014-09-05,downgraded to green,Columns failing,,,,,,,,,
678,,2400 CLAY ST,,38.29913032,-122.2998703,2014-09-05,Green,2014-09-05,downgraded from red, ,,,,,,,,,
679,,2772 CLIFFORD ST,,38.28179581,-122.3076294,2014-10-10,Green,2014-10-10, ,Minor stucco cracks,,,,,,,,,
680,," ,  ",,38.28179581,-122.3076294,2014-09-11,Green,2014-09-11, , ,,,,,,,,,
681,,1040 CLINTON ST,,38.30110009,-122.2879187,2014-09-05,Yellow,2014-09-05, ,"Cracking in conc floor significant ceiling cracks throughout restaurant, concrete exit ramp out the west side, west side of bldg shifted",,,,,,,,,
682,,1040 CLINTON ST,,38.30110009,-122.2879187,2014-09-11,Green,2014-09-11, ,dry wall damage - recomm eval by engr for buckled sidding,,,,,,,,,
683,,421 COFFIELD AVE,,38.30216022,-122.3044931,2014-09-23,Yellow,2014-09-23, ,"Broken windows near deck supports, some area leaving and/or shifted. Stay off of deck wall, supports are repaired",,,,,,,,,
684,,1742 COLEMAN ST,,38.30364069,-122.2924293,2014-09-11,Green,2014-09-11, ,OK to occ,,,,,,,,,
685,,3553 CASCADE ST,,38.32595473,-122.3016853,2014-09-05,Yellow,2014-09-05, ,"avoid side yard, chimney stack came apart bu tnot fallen - do not use fireplace",,,,,,,,,
686,,3577 CASCADE ST,,38.32651282,-122.3021339,2014-09-05,Yellow,2014-09-05, ,chimney fell - do not use fire place,,,,,,,,,
687,,4161 CASPER WAY,,38.3060259,-122.3471149,2014-09-05,Green,2014-09-05, ,small hairline cracks,,,,,,,,,
688,,321 CASSWALL ST,,38.28555518,-122.3102514,2014-09-05,Yellow,2014-09-05, ,Some damage to roof structure. Part of chimney still on roof.,,,,,,,,,
689,,126 CASSWALL ST,,38.28865385,-122.3107666,2014-09-23,Yellow,2014-09-23, ,backayrd CMU retaining wall/fence failure - no restrictions,,,,,,,,,
690,,321 CASSWALL ST,,38.28555518,-122.3102514,2014-09-05,Yellow,2014-09-05, ,"Chimney Down, damage to exterior roof and interior beams",,,,,,,,,
691,,501 CASSWALL ST,,38.28392416,-122.3094406,2014-09-25,Green,2014-09-25, ,Retaining wall 3' tall retaining walls leaning only,,,,,,,,,
692,,3826 CAVENDISH CT,,38.32686659,-122.3196314,2014-09-17,Green,2014-09-17, ,superficial cracking,,,,,,,,,
693,,3858 CAVENDISH CT,,38.32650667,-122.3191889,2014-09-05,Yellow,2014-09-05, ,Chimney fell over on to roof,,,,,,,,,
694,,974 CAYETANO DR,,38.28811347,-122.2707909,2014-09-25,Green,2014-09-25, ,No damage,,,,,,,,,
695,,1866 EL CENTRO AVE,,38.33502597,-122.3201549,2014-09-25,Green,2014-09-25,downgraded from yellow,[ATC-20 for 1862-1890] repair required on yellow have been completed,,,,,,,,,
696,,46 EL MONTE WAY,,38.29704892,-122.2638106,2014-09-24,Green,2014-09-24, ,"Minor chimney cracks,bricks @ celing of kitchen stove seprating from wall (1/2 ""). Engineer to look @ chimney & look @ brick veneer in kitchen",,,,,,,,,
697,,50 EL MONTE WAY,,38.29704783,-122.2641903,2014-09-05,Yellow,2014-09-05, ,Restrictions around chimney,,,,,,,,,
698,,950 ELNORA CT,,38.31752537,-122.2932027,2014-09-25,Green,2014-09-25, ,Outside only,,,,,,,,,
699,,970 ELNORA CT,,38.31748257,-122.2936188,2014-09-25,Green,2014-09-25, ,No comments,,,,,,,,,
700,,1165 ELFRADA CT,,38.27620158,-122.2937336,2014-09-24,Green,2014-09-24, ,minor crack above garage door,,,,,,,,,
701,,1120 ELLEN CT,,38.30933247,-122.3370501,2014-09-05,Yellow,2014-09-05, ,Chimney,,,,,,,,,
702,,3408 ELLEN WAY,,38.308455,-122.3389497,2014-09-05,Yellow,2014-09-05, ,chimney,,,,,,,,,
703,,1213 COOMBS ST,,38.29996721,-122.2884265,2014-09-17,Yellow,2014-09-17,downgraded from red,"front porch hazard, minor racking, loss of plater at interior; chimney in attic restic on wood frame - SE corner of porch hazard",,,,,,,,,
704,,1796 ELM ST,,38.2899857,-122.2940285,2014-09-25,Yellow,2014-09-25, ,Do not occupy areas E & W of tower until detailed walls is structrual. Eng. & recommend repairs are completed (Church & Offices),,,,,,,,,
705,,811 FOSTER RD,,38.28179024,-122.3062341,2014-10-03,Yellow,2014-10-03, ,Chimney-ext. cracked W face aprox. 4' from slab/two cracks (horz)Nth face from slab/crack @ top of chimney int. runs to ceiling,,,,,,,,,
706,,139 FRANKLIN ST,,38.28871318,-122.2895769,2014-09-16,Green,2014-09-16, ,"plaster cracks, no issues of concern",,,,,,,,,
707,,180 FRANKLIN ST,,38.28914203,-122.2889031,2014-10-02,Yellow,2014-10-02, ,"Cracked both sides chimney/SE about 1/4 replacement 3/4"" separation fireplace from walls. Keep away from south side of chimney outside & 6 ft away",,,,,,,,,
708,,190 FRANKLIN ST,,38.28925716,-122.2888617,2014-09-29,Green,2014-09-29, ,Minor separation @ front porch,,,,,,,,,
709,," ,  ",,38.28925716,-122.2888617,2014-10-02,Green,2014-10-02, ,Unit 240: Minor sheet rock cracking similar to 246,,,,,,,,,
710,,242 FRANKLIN ST,,38.29014685,-122.2884863,2014-10-02,Green,2014-10-02, ,"Unit 242:nail pop-outs on W sheetrock wall top, minor sheetrock crack.",,,,,,,,,
711,,246 FRANKLIN ST,,38.29013655,-122.2884119,2014-10-02,Green,2014-10-02, ,Unit 246: Minor sheetrock cracking,,,,,,,,,
712,,248 FRANKLIN ST,,38.29011936,-122.2883351,2014-10-02,Green,2014-10-02, ,No comments,,,,,,,,,
713,,248 FRANKLIN ST,,38.29011936,-122.2883351,2014-10-02,Green,2014-10-02, ,No report,,,,,,,,,
714,,249 FRANKLIN ST,,38.29033032,-122.2890717,2014-09-29,Green,2014-09-29, ,No damage minor stucco cracks,,,,,,,,,
715,,295 FRANKLIN ST,,38.29086299,-122.2887788,2014-09-05,Yellow,2014-09-05, ,loose bricks/chimney,,,,,,,,,
716,,308 FRANKLIN ST,,38.2911622,-122.2881353,2014-09-25,Green,2014-09-25, ,"Front conc.stairs settled, cracked plaster, settlement elsewhere, chimney ok",,,,,,,,,
717,,508 EVEN ST,,38.29366177,-122.2885691,2014-09-25,Green,2014-09-25, ,No issue (Apartment),,,,,,,,,
718,,508 EVEN ST,,38.29366177,-122.2885691,2014-10-02,Green,2014-10-03,downgraded from yellow,no significant struc damaged - overturned yellow tag of 9/24,,,,,,,,,
719,,512 EVEN ST,,38.29365024,-122.2885115,2014-09-25,Green,2014-09-25, ,No issue (Apartment),,,,,,,,,
720,,512 EVEN ST,,38.29365024,-122.2885115,2014-10-02,Green,2014-10-03,downgraded from yellow,no significant struc damaged - overturned yellow tag of 9/24,,,,,,,,,
721,,516 EVEN ST,,38.29364258,-122.2884571,2014-09-25,Green,2014-09-25, ,No issue (Apartment),,,,,,,,,
722,,516 EVEN ST,,38.29364258,-122.2884571,2014-10-02,Green,2014-10-03,downgraded from yellow,no significant struc damaged - overturned yellow tag of 9/24,,,,,,,,,
723,,520 EVEN ST,,38.29363149,-122.2884034,2014-09-24,Green,2014-09-24, ,Apartments-Inspected,,,,,,,,,
724,,520 EVEN ST,,38.29363149,-122.2884034,2014-09-25,Green,2014-09-25, ,No issue (Apartment),,,,,,,,,
725,,520 EVEN ST,,38.29363149,-122.2884034,2014-10-02,Green,2014-10-03,downgraded from yellow,no significant struc damaged - overturned yellow tag of 9/24,,,,,,,,,
726,,524 EVEN ST,,38.29362338,-122.2883583,2014-09-24,Green,2014-09-24, ,Apartments-Inspected,,,,,,,,,
727,,524 EVEN ST,,38.29362338,-122.2883583,2014-09-25,Green,2014-09-25, ,No issue (Apartment),,,,,,,,,
728,," ,  ",,38.29362338,-122.2883583,2014-09-25,Green,2014-09-25, ,Lath/plaster cracks,,,,,,,,,
729,,741 JACKSON ST,,38.30828107,-122.2862411,2014-09-05,Yellow,2014-09-05, ,Cracking of foundation - structure stable,,,,,,,,,
730,,849 JACKSON ST,,38.30682687,-122.2878325,2014-09-05,Red,2014-09-05, ,Roof collapse (Sunsweet Building),,,,,,,,,
731,,849 JACKSON ST,,38.30682687,-122.2878325,2014-09-05,Yellow,2014-09-05, ,Large cracks in wall,,,,,,,,,
732,,35 FOREST LN,,38.3135552,-122.3340967,2014-09-23,Red,2014-09-23, ,[ATC filed with yellow tags] carport red tagged,,,,,,,,,
733,,429 FRANKLIN ST,,38.29306719,-122.2880914,2014-09-10,Yellow,2014-09-10, ,no entry through front porch except construct workers & postman - porch pulling away from main struc - chimny collapse in attic,,,,,,,,,
734,,515 FRANKLIN ST 1,,38.29444481,-122.2876146,2014-09-16,Yellow,2014-09-16, ,foundation cracks Unit 1 - engineer review required,,,,,,,,,
735,,515 FRANKLIN ST,,38.29444481,-122.2876146,2014-10-10,Green,2014-10-10, ,Cracks in fndn cosmetic,,,,,,,,,
736,,543 FRANKLIN ST,,38.2947588,-122.2874945,2014-09-05,Yellow,2014-09-05, ,"Front port is unstable, chimeny damage",,,,,,,,,
737,,543 FRANKLIN ST,,38.2947588,-122.2874945,2014-09-05,Yellow,2014-09-05, ,Porch damage. Damage reported back interior. No access,,,,,,,,,
738,,543 FRANKLIN ST,,38.2947588,-122.2874945,2014-09-23,Yellow,2014-09-23, ,already yellow with porch and living room restricted access; already red tapped,,,,,,,,,
739,,590 FRANKLIN ST,,38.29464659,-122.2869737,2014-09-05,Yellow,2014-09-05, ,do not use offices at NW corner of building until inspection by structural engineer,,,,,,,,,
740,,709 FRANKLIN ST,,38.29561768,-122.2873106,2014-09-05,Yellow,2014-09-05, ,damaged chimney - leaning,,,,,,,,,
741,,1017 COOMBSVILLE RD,,38.29729258,-122.2691986,2014-09-24,Green,2014-09-24, ,[Fairview Market] no damage or hazards observed,,,,,,,,,
742,,2710 COOPER CT,,38.31643368,-122.2960816,2014-09-05,Yellow,2014-09-05, ,"cracks in exterior wall, partial separation wall to beam",,,,,,,,,
743,," ,  ",,38.31643368,-122.2960816,2014-09-05,Yellow,2014-09-05, ,"cracks in exterior wall, beam to wall connection",,,,,,,,,
744,,2730 COOPER CT,,38.31709117,-122.2961894,2014-09-05,Yellow,2014-09-05, ,post supporting balcony partial dislodged,,,,,,,,,
745,," ,  ",,38.31709117,-122.2961894,2014-10-02,Yellow,2014-10-02, ,OK to occupy restricted access at balcony area,,,,,,,,,
746,,761 CENTRAL AVE,,38.31332722,-122.288589,2014-09-25,Green,2014-09-25, ,Interior drywall cracks GREEN TAG,,,,,,,,,
747,,761 CENTRAL AVE,,38.31332722,-122.288589,2014-09-25,Green,2014-09-25, ,Interior drywall cracks GREEN TAG,,,,,,,,,
748,,856 CENTRAL AVE,,38.31324524,-122.2915749,2014-09-25,Green,2014-09-25, ,"Green tag, some stucco cracking, foundation cracking recommend to be looked @ by engineer, chimney separated from house 3/8 """,,,,,,,,,
749,,1050 CENTRAL AVE,,38.3129002,-122.2939392,2014-09-25,Green,2014-09-25, ,GREEN TAG,,,,,,,,,
750,,1151 CENTRAL AVE,,38.31210716,-122.2952515,2014-09-05,Yellow,2014-09-05, ,chimney top fell to groun,,,,,,,,,
751,,1800 CENTRAL AVE,,38.31074302,-122.3048719,2014-10-10,Green,2014-10-10, ,No comments,,,,,,,,,
752,,1019 CENTURY DR,,38.30664574,-122.3341188,2014-09-05,Yellow,2014-09-05, ,Restrict rear egress at area by chimney. Owner to remove this week.,,,,,,,,,
753,,1024 CENTURY DR,,38.30674,-122.3334393,2014-09-29,Yellow,2014-09-29, ,"Rear yard fence/brick block wall fell, temp. fence in place",,,,,,,,,
754,,1047 CENTURY DR,,38.30798121,-122.3342216,2014-09-24,Green,2014-09-24, ,trip hazards at drvwy - drvwy settlement; minor stucco cracks; chimney does not appear damaged,,,,,,,,,
755,,500 COOMBS ST,,38.29360971,-122.2847235,2014-09-08,Yellow,2014-09-08, ,"structural damage apparent, inspection refused - 9/9/14 deadline to provide struc engr report or will be red tagged",,,,,,,,,
756,,500 COOMBS ST,,38.29360971,-122.2847235,2014-09-17,Red,2014-09-19,downgraded to yellow,"[ATC states 500-518; no 518 in records] front wall leaning, anchor bolts leaning, rear deck stairs leaning - construction entry through front",,,,,,,,,
757,,500 COOMBS ST,,38.29360971,-122.2847235,2014-09-19,Yellow,2014-09-19,downgraded from red,downgrade based on civil report (attached) - restrict access to rear deck until repairs to handrails complete,,,,,,,,,
758,,506 COOMBS ST,,38.29366253,-122.2847047,2014-09-08,Yellow,2014-09-08, ,"structural damage apparent, inspection refused - 9/9/14 deadline to provide struc engr report or will be red tagged",,,,,,,,,
759,,1460 FIRST ST,,38.29728088,-122.2898652,2014-09-05,Green,2014-09-05, ,(West End Napa) OK to occupy,,,,,,,,,
760,,1480 FIRST ST,,38.29728088,-122.2898652,2014-09-05,Yellow,2014-09-05, , ,,,,,,,,,
761,,1480 FIRST ST,,38.29728088,-122.2898652,2014-09-05,Green,2014-09-05, ,re-opened business - no outside seating (Tarla),,,,,,,,,
762,,1580 FIRST ST,,38.2974082,-122.2908781,2014-09-05,Yellow,2014-09-05, ,foundation shifted,,,,,,,,,
763,,1607 FIRST ST,,38.29702203,-122.2913632,2014-09-08,Yellow,2014-09-08, ,loose & broken plaster falling - remove plaster to release yellow tag,,,,,,,,,
764,,1635 FIRST ST,,38.29699575,-122.2918537,2014-09-05,Red,2014-09-05, ,leaning north about 3-inches on foundation (Laser & Vein Center),,,,,,,,,
765,,1017 ROUND HILL CIR,,38.30257945,-122.3367358,2014-09-05,Yellow,2014-09-05, ,possible cracks at chimney - have chimney inspected,,,,,,,,,
766,,1028 ROUND HILL CIR,,38.30323862,-122.3363328,2014-09-05,Yellow,2014-09-05, ,Keep area clear around chimney,,,,,,,,,
767,,1045 ROUND HILL CIR,,38.30324273,-122.3371565,2014-09-05,Yellow,2014-09-05, ,Keep area clear around chimney,,,,,,,,,
768,,1056 ROUND HILL CIR,,38.30349709,-122.3381384,2014-09-05,Yellow,2014-09-05, ,Chimney severed at 2nd story roofline,,,,,,,,,
769,,3042 DONNA DR,,38.31298566,-122.3208123,2014-09-05,Yellow,2014-09-05, ,Chimney cracked - moderate damage,,,,,,,,,
